longitude,latitude,toll_name,geo_state
74.99684426,23.41805978,Dhamnod Toll Plaza,Madhya Pradesh
79.6149671,22.0757748,Seoni Toll Plaza,Madhya Pradesh
79.338166,19.8897059,Warora Toll Plaza,Maharashtra
77.485,23.1415,11 Miles Toll Plaza,Madhya Pradesh
77.485,23.1415,11 Miles Toll Plaza,Madhya Pradesh
87.9669882,24.8223539,18Th Mile Toll Plaza,West Bengal
87.9669882,24.8223539,18Th Mile Toll Plaza,West Bengal
74.3359426,29.5199622,6 ML Toll Plaza,Rajasthan
81.541637,27.2970385,Aaini Toll Plaza,Uttar Pradesh
81.541637,27.2970385,Aaini Toll Plaza,Uttar Pradesh
78.792226,27.4866364,Aaspur Toll Plaza,Uttar Pradesh
78.792226,27.4866364,Aaspur Toll Plaza,Uttar Pradesh
74.541811,29.8310108,Abubshehar Toll Plaza,Haryana
74.5375693,30.1395862,Abul Khurana Toll Plaza,Punjab
72.9136889,20.0749232,Achhad Border Checkpost Toll Plaza,Maharashtra
72.5602639,23.1864145,Adalaj Toll Plaza,Gujarat
72.5602639,23.1864145,Adalaj Toll Plaza,Gujarat
86.1433339,22.7997257,Adityapur Bridge Toll Plaza,Jharkhand
86.1433339,22.7997257,Adityapur Bridge Toll Plaza,Jharkhand
83.150691,17.685166,Agnampadi Toll Plaza,Andhra Pradesh
83.150691,17.685166,Agnampadi Toll Plaza,Andhra Pradesh
83.150691,17.685166,Agnampadi Toll Plaza,Andhra Pradesh
78.0036388,27.3029499,Agra Toll Plaza,Uttar Pradesh
78.0036388,27.3029499,Agra Toll Plaza,Uttar Pradesh
75.7916481,22.607405,Agroh Pathways (SH 38A) Toll Plaza,Madhya Pradesh
81.4219104,26.8583113,Ahmadpur Toll Plaza,Uttar Pradesh
72.650098,22.9758307,Ahmedabad Toll Plaza,Gujarat
72.4727484,22.9737029,Ahmedabad (Ring Road) Pl Toll Plaza,Gujarat
72.6616119,22.972483,Ahmedabad Ring Road 2 Toll Plaza,Gujarat
72.6476766,22.9760029,Ahmedabad Vadodra Expressways Toll Plaza,Gujarat
81.0325393,26.1979633,Aihar Toll Plaza,Uttar Pradesh
81.6092604,26.2354462,Aindhi Toll Plaza,Uttar Pradesh
77.4309156,17.5014853,Ainoli Toll Plaza,Karnataka
77.4309156,17.5014853,Ainoli Toll Plaza,Karnataka
72.965821,19.1530141,Airoli Toll Plaza,Maharashtra
73.0087725,18.9697719,Airport - Sewri Section Toll Plaza,Maharashtra
79.2077546,25.8799384,Ait Toll Plaza,Uttar Pradesh
79.2077546,25.8799384,Ait Toll Plaza,Uttar Pradesh
75.3443677,27.5081438,Akhepura Toll Plaza,Rajasthan
73.535235,21.32525,Akkalkuva Check Post Toll Plaza,Gujarat
83.2744537,26.7287617,Akshda Toll Plaza,Uttar Pradesh
83.2744537,26.7287617,Akshda Toll Plaza,Uttar Pradesh
78.5804347,10.6408295,Akudi Toll Plaza,Tamil Nadu
78.5804347,10.6408295,Akudi Toll Plaza,Tamil Nadu
80.7054303,26.3392488,Akwabad Toll Plaza,Uttar Pradesh
78.2772405,27.0535379,Alep Main 21 Toll Plaza,Uttar Pradesh
80.7107108,26.8456349,Alep Main 290 Toll Plaza,Uttar Pradesh
78.9773791,27.003609,Alep Ramp 101 Toll Plaza,Uttar Pradesh
79.0762287,26.9492453,Alep Ramp 108 Toll Plaza,Uttar Pradesh
79.1581685,26.9143684,Alep Ramp 116 Toll Plaza,Uttar Pradesh
79.3310671,26.9091998,Alep Ramp 133 Toll Plaza,Uttar Pradesh
79.1602989,26.9136189,Alep Ramp 154 Toll Plaza,Uttar Pradesh
79.6535088,27.0708105,Alep Ramp 171 Toll Plaza,Uttar Pradesh
79.814441,26.98693,Alep Ramp 193 Toll Plaza,Uttar Pradesh
79.880291,26.9294041,Alep Ramp 204 Toll Plaza,Uttar Pradesh
80.200743,26.926112,Alep Ramp 238 Toll Plaza,Uttar Pradesh
80.48483,26.9047203,Alep Ramp 269 Toll Plaza,Uttar Pradesh
78.3351684,27.0387186,Alep Ramp 27 Toll Plaza,Uttar Pradesh
80.668758,26.8500628,Alep Ramp 284 Toll Plaza,Uttar Pradesh
78.5825899,26.99896,Alep Ramp 54 Toll Plaza,Uttar Pradesh
78.8133088,26.9674987,Alep Ramp 77 Toll Plaza,Uttar Pradesh
78.9465246,27.0157331,Alep Ramp 92 Toll Plaza,Uttar Pradesh
80.027101,26.912105,Alep Ramp 220 Toll Plaza,Uttar Pradesh
74.7269695,29.9209392,Alika Toll Plaza,Haryana
76.9919149,27.7669053,Alipur Tigra 2 Toll Plaza,Haryana
80.1630504,26.0697807,Aliyapur Toll Plaza,Uttar Pradesh
80.1630504,26.0697807,Aliyapur Toll Plaza,Uttar Pradesh
79.5453062,22.2721747,Alloinia Toll Plaza,Madhya Pradesh
73.2044535,23.2730374,Alva Toll Plaza,Gujarat
73.2044535,23.2730374,Alva Toll Plaza,Gujarat
77.8984251,15.4864,Amakathadu Toll Plaza,Andhra Pradesh
77.8984251,15.4864,Amakathadu Toll Plaza,Andhra Pradesh
75.3201912,29.0856623,Amarpura Toll Plaza,Rajasthan
76.8128373,30.5272867,Ambala Chandigarh Toll Plaza,Punjab
76.8128373,30.5272867,Ambala Chandigarh Toll Plaza,Punjab
82.8856907,26.3684277,Amdi Toll Plaza,Uttar Pradesh
82.8856907,26.3684277,Amdi Toll Plaza,Uttar Pradesh
75.049934,15.528224,Aminbhavi Toll Plaza,Karnataka
76.8760965,23.1020974,Amlaha Toll Plaza,Madhya Pradesh
73.1259311,24.8418839,Amli Toll Plaza,Rajasthan
77.0908951,27.1014078,Amoli Toll Plaza,Rajasthan
77.0908951,27.1014078,Amoli Toll Plaza,Rajasthan
83.0569444,25.9811111,Amora Moiddinpur Kala Toll Plaza,Uttar Pradesh
76.480686,29.3669362,Amrawali Khera Toll Plaza,Haryana
76.480686,29.3669362,Amrawali Khera Toll Plaza,Haryana
74.2531427,29.3926633,Amritsar Jamnagar Expwy Toll Plaza,Rajasthan
72.3465059,23.0083011,Ahmedabad-Dhangdhra Highway Toll Booth,Gujarat
71.3705385,23.0007861,AMTL-Tp03-Soldi Toll Plaza,Gujarat
70.8583,23.0725,AMTL-Tp04-Aniyari Toll Plaza,Gujarat
72.981298,22.594556,Anand Toll Plaza,Gujarat
79.267282,26.59564,Anantram Toll Plaza,Uttar Pradesh
79.267282,26.59564,Anantram Toll Plaza,Uttar Pradesh
81.642923,25.6118713,Andiyari Toll Plaza,Uttar Pradesh
81.642923,25.6118713,Andiyari Toll Plaza,Uttar Pradesh
73.9710349,17.8103317,Anewadi Toll Plaza,Maharashtra
73.9710349,17.8103317,Anewadi Toll Plaza,Maharashtra
73.9710349,17.8103317,Anewadi Toll Plaza,Maharashtra
69.31038,23.32546,Angiya Toll Plaza,Gujarat
75.0794355,17.3593938,Ankadhal Toll Plaza,Maharashtra
75.0794355,17.3593938,Ankadhal Toll Plaza,Maharashtra
82.1473895,16.6722283,Annampalli Toll Plaza,Andhra Pradesh
82.1473895,16.6722283,Annampalli Toll Plaza,Andhra Pradesh
82.1473895,16.6722283,Annampalli Toll Plaza,Andhra Pradesh
74.5521136,22.8653439,Antarveliya Toll Plaza,Madhya Pradesh
74.5521136,22.8653439,Antarveliya Toll Plaza,Madhya Pradesh
78.971649,20.553225,Arambha Toll Plaza,Maharashtra
78.971649,20.553225,Arambha Toll Plaza,Maharashtra
73.1660415,19.3619885,Arjunalli Toll Plaza,Maharashtra
73.1660415,19.3619885,Arjunalli Toll Plaza,Maharashtra
75.1985552,25.0911602,Aroli Toll Plaza,Rajasthan
86.6325589,26.2967379,Asanpur Toll Plaza,Bihar
86.3529489,26.2978728,Asanpur Kupaha Toll Plaza,Bihar
76.3586728,18.1282205,Ashiv Toll Plaza,Maharashtra
76.3586728,18.1282205,Ashiv Toll Plaza,Maharashtra
76.751685,18.469501,Ashta Toll Plaza,Maharashtra
76.8461383,28.725237,Asoda Toll Plaza,Haryana
76.8461383,28.725237,Asoda Toll Plaza,Haryana
81.9462051,26.3005613,Asroga Toll Plaza,Uttar Pradesh
79.779993,12.34699,Athur Toll Plaza,Tamil Nadu
79.779993,12.34699,Athur Toll Plaza,Tamil Nadu
82.2754595,24.9597867,Atraila Shiv Gulam Toll Plaza,Uttar Pradesh
82.2754595,24.9597867,Atraila Shiv Gulam Toll Plaza,Uttar Pradesh
77.7769972,12.7768018,Attibelle Toll Plaza,Karnataka
80.4695233,25.4911768,Baberu Km 43 Toll Plaza,Uttar Pradesh
84.4883019,25.4982505,Babhaniyawan Toll Plaza,Bihar
84.4883019,25.4982505,Babhaniyawan Toll Plaza,Bihar
78.4645601,25.2163229,Babina Toll Plaza,Uttar Pradesh
78.4645601,25.2163229,Babina Toll Plaza,Uttar Pradesh
76.38934493,31.01469574,Bachhwan Toll Plaza,Punjab
76.38934493,31.01469574,Bachhwan Toll Plaza,Punjab
82.3744962,27.5056676,Badagaon Toll Plaza,Uttar Pradesh
82.3744962,27.5056676,Badagaon Toll Plaza,Uttar Pradesh
77.3057006,28.4762419,Badarpur Faridabad Toll Plaza,Haryana
77.3057006,28.4762419,Badarpur Faridabad Toll Plaza,Haryana
80.6576623,26.066007,Badauri Toll Plaza,Uttar Pradesh
80.6576623,26.066007,Badauri Toll Plaza,Uttar Pradesh
80.6329543,16.8507788,Badava Toll Plaza,Andhra Pradesh
80.6329543,16.8507788,Badava Toll Plaza,Andhra Pradesh
81.6203729,19.2297711,Badayiguda Toll Plaza,Chhattisgarh
81.6203729,19.2297711,Badayiguda Toll Plaza,Chhattisgarh
75.640495,30.2478128,Badbar Toll Plaza,Punjab
75.3470821,19.1715738,Badewadi Toll Plaza,Maharashtra
76.3211974,21.2978591,Badgaon Toll Plaza,Madhya Pradesh
77.8305121,22.8792887,Badi Baktara Toll Plaza,Madhya Pradesh
74.5065252,26.5473647,Badi Ghati Toll Plaza,Rajasthan
74.5065252,26.5473647,Badi Ghati Toll Plaza,Rajasthan
76.250052,26.527359,Badkapara Toll Plaza,Rajasthan
76.250052,26.527359,Badkapara Toll Plaza,Rajasthan
76.250052,26.527359,Badkapara Toll Plaza,Rajasthan
76.820849,28.575254,Badli Toll Plaza,Haryana
76.820849,28.575254,Badli Toll Plaza,Haryana
75.8199341,29.298647,Badopatti Toll Plaza,Haryana
74.1608431,25.8843501,Bagaliya Toll Plaza,Rajasthan
74.1608431,25.8843501,Bagaliya Toll Plaza,Rajasthan
76.3734978,26.4319846,Bagdi Km 14 Toll Plaza,Rajasthan
77.764275,13.792997,Bagepalli Toll Plaza,Karnataka
77.764275,13.792997,Bagepalli Toll Plaza,Karnataka
73.9029185,25.5905262,Baggar Toll Plaza,Rajasthan
73.9029185,25.5905262,Baggar Toll Plaza,Rajasthan
72.1793926,22.6304359,Bagodara Toll Plaza,Gujarat
77.7197324,22.784452,Bagwada Toll Plaza,Madhya Pradesh
77.7197324,22.784452,Bagwada Toll Plaza,Madhya Pradesh
76.7169159,27.5272061,Bahala Toll Plaza,Rajasthan
76.7169159,27.5272061,Bahala Toll Plaza,Rajasthan
77.249761,22.3149361,Baharagaon Toll Plaza,Madhya Pradesh
79.9080028,23.0470944,Bahoripar Toll Plaza,Madhya Pradesh
79.9080028,23.0470944,Bahoripar Toll Plaza,Madhya Pradesh
76.5124395,29.4851753,Bahri Toll Plaza,Haryana
76.5124395,29.4851753,Bahri Toll Plaza,Haryana
76.4012268,29.0270059,Bainsi Toll Plaza,Haryana
76.4012268,29.0270059,Bainsi Toll Plaza,Haryana
82.3394042,26.0544377,Baiti Kala Toll Plaza,Uttar Pradesh
77.6661174,27.8826635,Bajna Ramp Toll Plaza,Uttar Pradesh
77.6661174,27.8826635,Bajna Ramp Toll Plaza,Uttar Pradesh
77.2867789,24.575606,Bajrangarh Toll Plaza,Madhya Pradesh
77.2867789,24.575606,Bajrangarh Toll Plaza,Madhya Pradesh
79.3582326,22.8436452,Bakori Toll Plaza,Madhya Pradesh
79.3582326,22.8436452,Bakori Toll Plaza,Madhya Pradesh
72.519899,22.9353282,Bakrol Toll Plaza,Gujarat
72.519899,22.9353282,Bakrol Toll Plaza,Gujarat
92.756356,24.946609,Balachera Toll Plaza,Assam
92.756356,24.946609,Balachera Toll Plaza,Assam
73.0864647,25.2929983,Balana Toll Plaza,Rajasthan
73.0864647,25.2929983,Balana Toll Plaza,Rajasthan
74.9929627,25.6335548,Baland Toll Plaza,Rajasthan
77.443155,28.959724,Baleni Toll Plaza,Uttar Pradesh
77.443155,28.959724,Baleni Toll Plaza,Uttar Pradesh
86.0818908,25.2023437,Balgudar Toll Plaza,Bihar
86.0818908,25.2023437,Balgudar Toll Plaza,Bihar
87.1258987,22.3447909,Balibhasa Toll Plaza,West Bengal
87.1258987,22.3447909,Balibhasa Toll Plaza,West Bengal
74.7409479,30.2154317,Balluana Toll Plaza,Punjab
74.7409479,30.2154317,Balluana Toll Plaza,Punjab
71.0157556,22.4092632,Bamanbore Toll Plaza,Gujarat
71.08863844,22.42317506,Bamanbore Toll Gate,Gujarat
71.08863844,22.42317506,Bamanbore Toll Gate,Gujarat
79.4280688,25.357161,Bamhori Kumari Toll Plaza,Uttar Pradesh
79.4280688,25.357161,Bamhori Kumari Toll Plaza,Uttar Pradesh
76.2231693,28.8047442,Bamla Toll Plaza,Haryana
76.2231693,28.8047442,Bamla Toll Plaza,Haryana
85.5835585,21.7099103,Banajodi Toll Plaza,Odisha
80.4036,25.5275,Banda Km 50 Toll Plaza,Uttar Pradesh
85.394936,19.922258,Bandalo Toll Plaza,Odisha
78.7566821,14.1311987,Bandapalli Toll Plaza,Andhra Pradesh
78.7566821,14.1311987,Bandapalli Toll Plaza,Andhra Pradesh
78.613207,13.3365388,Bandlapalli Toll Plaza,Andhra Pradesh
76.6083795,15.1520743,Baneti Toll Plaza,Karnataka
77.400019,13.09062,Banglaore-Nelamangala Toll Plaza,Karnataka
77.400019,13.09062,Banglaore-Nelamangala Toll Plaza,Karnataka
75.2797879,14.9100198,Bankapur Toll Plaza,Karnataka
75.2797879,14.9100198,Bankapur Toll Plaza,Karnataka
74.9329149,32.8408526,Bann Toll Plaza,Jammu and Kashmir
77.5883892,12.8498184,Bannerghatta Road (P2) Toll Plaza,Karnataka
74.8025278,18.8249746,Banpimpri Toll Plaza,Maharashtra
74.8025278,18.8249746,Banpimpri Toll Plaza,Maharashtra
74.8025278,18.8249746,Banpimpri Toll Plaza,Maharashtra
74.8025278,18.8249746,Banpimpri Toll Plaza,Maharashtra
79.3700104,23.8056518,Bansa (Damoh) Toll Plaza,Madhya Pradesh
79.3700104,23.8056518,Bansa (Damoh) Toll Plaza,Madhya Pradesh
87.37668795,23.49124647,Banskopa Toll Plaza,West Bengal
87.37668795,23.49124647,Banskopa Toll Plaza,West Bengal
74.3458943,27.2716112,Banthri Toll Plaza,Rajasthan
79.929189,28.932477,Banushi Toll Plaza,Uttarakhand
79.929189,28.932477,Banushi Toll Plaza,Uttarakhand
81.3329581,26.6292559,Bara Toll Plaza,Uttar Pradesh
88.080112,25.6709258,Barai Toll Plaza,West Bengal
88.080112,25.6709258,Barai Toll Plaza,West Bengal
80.018171,26.3846762,Barajore Toll Plaza,Uttar Pradesh
80.018171,26.3846762,Barajore Toll Plaza,Uttar Pradesh
78.2723247,26.3200746,Baretha Km 21.120 Toll Plaza,Madhya Pradesh
77.9332208,26.9324687,Baretha Or Jajau Toll Plaza,Uttar Pradesh
82.4900956,24.1456466,Bargawan Rode Toll Plaza,Madhya Pradesh
75.9046644,26.6880973,Barkheda Toll Plaza,Rajasthan
75.9046644,26.6880973,Barkheda Toll Plaza,Rajasthan
75.8487428,22.8158833,Baroli Toll Plaza,Madhya Pradesh
78.0310781,27.3355095,Baros Toll Plaza,Uttar Pradesh
78.0310781,27.3355095,Baros Toll Plaza,Uttar Pradesh
72.3497016,28.0479447,Barsalpur Toll Plaza,Rajasthan
87.5906404,25.8044766,Barsoni Toll Plaza,Bihar
87.5906404,25.8044766,Barsoni Toll Plaza,Bihar
79.4147041,18.7029673,Basanthnagar Toll Plaza,Telangana
79.4147041,18.7029673,Basanthnagar Toll Plaza,Telangana
78.8723771,14.7083358,Basapuram Toll Plaza,Andhra Pradesh
78.8723771,14.7083358,Basapuram Toll Plaza,Andhra Pradesh
79.8432637,27.0735547,Basheerapur Toll Plaza,Uttar Pradesh
79.8432637,27.0735547,Basheerapur Toll Plaza,Uttar Pradesh
76.2089031,29.1263944,Bass Toll Plaza,Haryana
76.2089031,29.1263944,Bass Toll Plaza,Haryana
74.8166403,25.0332076,Bassi Toll Plaza,Rajasthan
73.9753353,20.1418666,Baswant Toll Plaza,Maharashtra
77.7966071,14.5001074,Bathalapalli Toll Plaza,Andhra Pradesh
77.7966071,14.5001074,Bathalapalli Toll Plaza,Andhra Pradesh
77.9452249,13.2633633,Beechagondanahalli Toll Plaza,Karnataka
77.9452249,13.2633633,Beechagondanahalli Toll Plaza,Karnataka
76.0273785,24.6426299,Beer Mandi Toll Plaza,Rajasthan
76.0273785,24.6426299,Beer Mandi Toll Plaza,Rajasthan
75.8770702,31.2042664,Behram Toll Plaza,Punjab
75.8770702,31.2042664,Behram Toll Plaza,Punjab
81.1439514,24.4932481,Bela Toll Plaza,Madhya Pradesh
81.1439514,24.4932481,Bela Toll Plaza,Madhya Pradesh
79.327525,25.076435,Bela Toll Plaza,Madhya Pradesh
74.2935113,14.7104272,Belekeri Toll Plaza,Karnataka
74.2910924,14.7129319,Belekery toll plaza,Karnataka
82.89592895,27.11927055,Belgada Toll Plaza,Uttar Pradesh
82.89592895,27.11927055,Belgada Toll Plaza,Uttar Pradesh
86.797826,23.7638714,Beliyad Toll Plaza,Jharkhand
86.797826,23.7638714,Beliyad Toll Plaza,Jharkhand
84.6993017,19.1112769,Bellupada Toll Plaza,Andhra Pradesh
84.6993017,19.1112769,Bellupada Toll Plaza,Andhra Pradesh
76.7704241,12.9627873,Bellur Toll Plaza,Karnataka
78.3480532,28.1884316,Belon Toll Plaza,Uttar Pradesh
83.8393474,25.6367166,Belsari Toll Plaza,Uttar Pradesh
77.9419862,13.2608012,BENGALURU - CHINTAMANI STATE TOLL PLAZA,Karnataka
78.0205142,29.9126394,Bhadarabad Toll Plaza,Uttarakhand
78.0205142,29.9126394,Bhadarabad Toll Plaza,Uttarakhand
72.0918993,21.9858437,Bhadbhid Toll Plaza,Gujarat
72.0918993,21.9858437,Bhadbhid Toll Plaza,Gujarat
73.8098679,28.5940189,Bhadera Toll Plaza,Rajasthan
73.8098679,28.5940189,Bhadera Toll Plaza,Rajasthan
87.2369304,26.3431495,Bhadesar Toll Plaza,Bihar
76.3707023,26.2249037,Bhadoti Toll Plaza,Rajasthan
86.326952,20.9442238,Bhagada Narayanpur Toll Plaza,Odisha
86.326952,20.9442238,Bhagada Narayanpur Toll Plaza,Odisha
87.0099137,25.2310846,Bhagalpur Toll Plaza,Bihar
87.0099137,25.2310846,Bhagalpur Toll Plaza,Bihar
77.0608762,29.0717717,Bhagan Toll Plaza,Haryana
77.0608762,29.0717717,Bhagan Toll Plaza,Haryana
76.6069388,30.7601087,Bhagomajra Toll Plaza,Punjab
76.6069388,30.7601087,Bhagomajra Toll Plaza,Punjab
74.8250045,31.2499858,Bhagupur toll Plaza,Punjab
72.9170484,20.435004,Bhagwada Toll Plaza,Gujarat
72.9170484,20.435004,Bhagwada Toll Plaza,Gujarat
77.8208919,29.9310992,Bhagwanpur Toll Plaza,Uttarakhand
77.8208919,29.9310992,Bhagwanpur Toll Plaza,Uttarakhand
71.7838059,23.9112909,Bhalgam Toll Plaza,Gujarat
76.203269,28.208603,Bhalkhi Toll Plaza,Haryana
78.0172319,20.2348697,Bhamb Raja Toll Plaza,Maharashtra
78.0172319,20.2348697,Bhamb Raja Toll Plaza,Maharashtra
76.432023,26.91668,Bhandaraj Toll Plaza,Rajasthan
76.432023,26.91668,Bhandaraj Toll Plaza,Rajasthan
78.2542342,29.5452425,Bhanera Toll Plaza,Uttar Pradesh
82.12671,26.63558,Bharatkhund Toll Plaza,Uttar Pradesh
82.1305397,26.6406296,Bharatkund Toll Plaza,Uttar Pradesh
77.7196277,26.8522028,Bharatpur - Dholpur Toll Plaza,Rajasthan
70.6639123,21.8053087,Bharudi Toll Plaza,Gujarat
73.775314,19.752854,Bharvir Toll Plaza,Maharashtra
73.775314,19.752854,Bharvir Toll Plaza,Maharashtra
72.642183,23.115498,Bhat Toll Plaza,Gujarat
72.642183,23.115498,Bhat Toll Plaza,Gujarat
72.921598,21.089828,Bhatia Toll Plaza,Gujarat
72.921598,21.089828,Bhatia Toll Plaza,Gujarat
73.8418486,22.7928616,Bhatwada Toll Plaza,Gujarat
75.2010125,29.5321359,Bhavdeen Toll Plaza,Haryana
75.2010125,29.5321359,Bhavdeen Toll Plaza,Haryana
82.6706178,26.2268497,Bhelara Toll Plaza,Uttar Pradesh
78.3986122,18.2053501,Bhiknoor Toll Plaza,Telangana
71.9770471,24.1439022,Bhiladi Toll Plaza,Gujarat
71.9770471,24.1439022,Bhiladi Toll Plaza,Gujarat
71.9770471,24.1439022,Bhiladi Toll Plaza,Gujarat
76.824531,28.174303,Bhiwadi Toll Plaza,Rajasthan
77.6192622,28.8001909,Bhojpur Dme Km 4570 Toll Plaza,Uttar Pradesh
82.0097251,21.9322,Bhojpuree Toll Plaza,Chhattisgarh
82.0121613,21.9322041,Bhojpuri Toll Plaza,Chhattisgarh
72.0006434,25.6413634,Bhooka Toll Plaza,Rajasthan
77.5028928,23.371139,Bhopal Vidisha Toll Plaza,Madhya Pradesh
77.5028928,23.371139,Bhopal Vidisha Toll Plaza,Madhya Pradesh
72.2690053,24.4938478,Bhordu Toll Plaza,Gujarat
72.2690053,24.4938478,Bhordu Toll Plaza,Gujarat
76.2176519,22.974901,Bhourasa Toll Plaza,Madhya Pradesh
79.0493331,14.7359148,Bhramanapalli Toll Plaza,Andhra Pradesh
77.576387,29.1260434,Bhuni Toll Plaza,Uttar Pradesh
75.16324953,23.59783352,Bhuteda Toll Plaza,Madhya Pradesh
75.16324953,23.59783352,Bhuteda Toll Plaza,Madhya Pradesh
85.058237,21.505816,Bideibadkudar Toll Plaza,Odisha
85.058237,21.505816,Bideibadkudar Toll Plaza,Odisha
78.5061526,23.1318658,Bijanhai Toll Plaza,Madhya Pradesh
78.5061526,23.1318658,Bijanhai Toll Plaza,Madhya Pradesh
75.739648,16.786741,Bijapur Toll Plaza,Karnataka
75.739648,16.786741,Bijapur Toll Plaza,Karnataka
77.600397,28.520428,Bilakbarpur Toll Plaza,Uttar Pradesh
77.600397,28.520428,Bilakbarpur Toll Plaza,Uttar Pradesh
75.2892267,24.0204586,Bilantri Toll Plaza,Madhya Pradesh
75.2892267,24.0204586,Bilantri Toll Plaza,Madhya Pradesh
78.2526045,26.0553257,Billaua Toll Plaza,Madhya Pradesh
78.2469299,26.0561347,Billowa Toll Plaza,Madhya Pradesh
77.454546,18.434802,Biloli Check Post Toll Plaza,Maharashtra
74.0625779,26.1220223,Binaswas Toll Plaza,Rajasthan
74.0625779,26.1220223,Binaswas Toll Plaza,Rajasthan
73.3923251,26.2792,Binawas Toll Plaza,Rajasthan
73.2014504,25.3711492,Birami Toll Plaza,Rajasthan
73.2014504,25.3711492,Birami Toll Plaza,Rajasthan
74.0625779,26.1220223,Biratiya Toll Plaza,Rajasthan
75.889119,28.468107,Bisalwas Toll Plaza,Haryana
75.889119,28.468107,Bisalwas Toll Plaza,Haryana
80.5716192,25.4143199,Bisanda Km 24 Toll Plaza,Uttar Pradesh
84.3754704,26.9972044,Bishunpurwa Toll Plaza,Bihar
72.8508187,22.4129711,Bochasan Toll Plaza,Gujarat
78.7145603,9.3981624,Bogalur Toll Plaza,Tamil Nadu
78.7145603,9.3981624,Bogalur Toll Plaza,Tamil Nadu
83.6310796,20.7407941,Bolangir Toll Plaza,Odisha
83.6310796,20.7407941,Bolangir Toll Plaza,Odisha
80.0705548,15.8866134,Bollapalli Toll Plaza,Andhra Pradesh
80.0705548,15.8866134,Bollapalli Toll Plaza,Andhra Pradesh
78.350437,17.141561,Bongulur Toll Plaza,Telangana
76.2448771,26.3330098,Bonli Toll Plaza,Rajasthan
71.5596491,25.1020098,Bor Charnan Toll Plaza,Rajasthan
78.5151964,23.0302602,Boras Toll Plaza,Madhya Pradesh
74.783872,17.000291,Borgaon Toll Plaza,Maharashtra
74.783872,17.000291,Borgaon Toll Plaza,Maharashtra
73.45132,20.272237,Borgaon Check Post Toll Plaza,Maharashtra
73.052162,20.885548,Boriach Toll Plaza,Gujarat
73.0494895,20.8857308,Boriyach Toll Plaza,Gujarat
78.963632,20.85612,Borkhedi Toll Plaza,Maharashtra
78.963632,20.85612,Borkhedi Toll Plaza,Maharashtra
75.017921,22.2102048,Borood Toll Plaza,Madhya Pradesh
75.0039297,12.8755179,Brahamarakotlu Toll Plaza,Karnataka
75.0039297,12.8755179,Brahamarakotlu Toll Plaza,Karnataka
79.2591302,14.7570435,Brahmanapalle Toll Plaza,Andhra Pradesh
79.8115709,20.6069327,Brahmapuri Toll Plaza,Maharashtra
78.110043,28.767149,Brijghat Toll Plaza,Uttar Pradesh
84.9518215,25.7478818,Brindawan Toll Plaza,Bihar
84.9518215,25.7478818,Brindawan Toll Plaza,Bihar
76.5444993,30.9089595,BSC-C&C Kurali Toll Plaza,Punjab
76.2232654,28.305432,Buchawas Toll Plaza,Haryana
76.2232654,28.305432,Buchawas Toll Plaza,Haryana
79.8624013,14.5436553,Buchireddypalem Toll Plaza,Andhra Pradesh
79.8624013,14.5436553,Buchireddypalem Toll Plaza,Andhra Pradesh
77.153804,14.121006,Buddareddyhalli Toll Plaza,Karnataka
77.153804,14.121006,Buddareddyhalli Toll Plaza,Karnataka
79.894624,14.059589,Budhanam (NH- 16) Toll Plaza,Andhra Pradesh
79.894624,14.059589,Budhanam (NH- 16) Toll Plaza,Andhra Pradesh
73.1086818,27.3481293,Bungri Toll Plaza,Rajasthan
76.041609,12.521607,Byadarahalli Toll Plaza,Karnataka
76.469761,29.197681,Chabri Toll Plaza,Haryana
73.6649025,20.2234447,Chachadgaon Toll Plaza,Maharashtra
73.6649025,20.2234447,Chachadgaon Toll Plaza,Maharashtra
76.189686,23.58181,Chachakhedi Toll Plaza,Madhya Pradesh
78.5748068,14.9795772,Chagalmarri Toll Plaza,Andhra Pradesh
75.7908,30.9887,Chahar Toll Plaza,Punjab
75.7908,30.9887,Chahar Toll Plaza,Punjab
75.3044463,31.0241526,Chak Bamniya Toll Plaza,Punjab
75.3044463,31.0241526,Chak Bamniya Toll Plaza,Punjab
75.71171,23.2552498,Chakrawada Toll Plaza,Madhya Pradesh
75.7179749,23.2547289,Chakrawda Toll Plaza,Madhya Pradesh
75.7280533,14.5568588,Chalageri Toll Plaza,Karnataka
74.07695546,19.17250718,Chalakwadi Toll Plaza,Maharashtra
74.07695546,19.17250718,Chalakwadi Toll Plaza,Maharashtra
79.5780469,26.0366451,Chamari Toll Plaza,Uttar Pradesh
79.2043586,20.9673087,Champa Toll Plaza,Maharashtra
79.1972487,20.963919,Champa / Umred Toll Plaza,Maharashtra
78.8705315,23.8876988,Chanatoriya (Sagar) Toll Plaza,Madhya Pradesh
78.8705315,23.8876988,Chanatoriya (Sagar) Toll Plaza,Madhya Pradesh
88.0198929,24.56314998,Kishorpur Toll Plaza,West Bengal
88.0198929,24.56314998,Kishorpur Toll Plaza,West Bengal
76.897914,30.738908,Chandimandir Toll Plaza,Haryana
76.897914,30.738908,Chandimandir Toll Plaza,Haryana
76.641341,29.861128,Chandlana Toll Plaza,Haryana
74.210726,20.3251297,Chandwad Toll Plaza,Maharashtra
74.210726,20.3251297,Chandwad Toll Plaza,Maharashtra
78.4516785,15.459914,Chapirevula Toll Plaza,Andhra Pradesh
78.4516785,15.459914,Chapirevula Toll Plaza,Andhra Pradesh
76.6148449,23.6572301,Chapra Toll Plaza,Madhya Pradesh
84.4909603,26.0266733,Chapraitha Toll Plaza,Bihar
84.4909603,26.0266733,Chapraitha Toll Plaza,Bihar
74.671501,27.3497893,Chapri Toll Plaza,Rajasthan
84.7482679,26.731191,Chapwa Toll Plaza,Bihar
72.94198051,19.89112788,Charoti Toll Plaza,Maharashtra
72.94198051,19.89112788,Charoti Toll Plaza,Maharashtra
77.6375499,10.4805967,Chatrapatti Toll Plaza,Tamil Nadu
76.4466417,15.9087375,Chattar Toll Plaza,Karnataka
76.4466417,15.9087375,Chattar Toll Plaza,Karnataka
75.6043331,28.9974934,Chaudhariwas Toll Plaza,Haryana
82.4169955,26.7813982,Chaukadi Toll Plaza,Uttar Pradesh
75.5904587,30.8245437,Chaukiman Toll Plaza,Punjab
75.5904587,30.8245437,Chaukiman Toll Plaza,Punjab
74.519298,29.7879682,Chautala Toll Plaza,Haryana
75.9086944,24.7594444,Chechat Toll Plaza,Rajasthan
79.401055,12.910836,Chennasamaduram Toll Plaza,Tamil Nadu
79.401055,12.910836,Chennasamaduram Toll Plaza,Tamil Nadu
77.6205846,28.7021006,Chhajarsi Toll Plaza,Uttar Pradesh
77.6205846,28.7021006,Chhajarsi Toll Plaza,Uttar Pradesh
77.3644317,28.0990717,Chhajju Nagar Toll Plaza,Haryana
77.3644317,28.0990717,Chhajju Nagar Toll Plaza,Haryana
77.7778834,29.5863609,Chhapar Toll Plaza,Uttar Pradesh
77.7778834,29.5863609,Chhapar Toll Plaza,Uttar Pradesh
83.404606,27.4033059,Chhapwa Toll Plaza,Uttar Pradesh
76.7249379,28.7125732,Chhara Toll Plaza,Haryana
71.8271,24.674,Chhoti Villor Toll Plaza,Rajasthan
71.8271,24.674,Chhoti Villor Toll Plaza,Rajasthan
82.9424053,21.2997706,Chhuhipali Toll Plaza,Chhattisgarh
74.6923881,31.6172919,Chiddan Toll Plaza,Punjab
78.433626,21.842211,Chikhalikala Toll Plaza,Madhya Pradesh
78.433626,21.842211,Chikhalikala Toll Plaza,Madhya Pradesh
75.12653868,23.23114081,Chikliya Toll Plaza,Madhya Pradesh
75.12653868,23.23114081,Chikliya Toll Plaza,Madhya Pradesh
75.12653868,23.23114081,Chikliya Toll Plaza,Madhya Pradesh
75.12653868,23.23114081,Chikliya Toll Plaza,Madhya Pradesh
77.5154422,26.6129885,Chilla Chond Toll Plaza,Rajasthan
80.160654,16.885015,Chillakallu Toll Plaza,Andhra Pradesh
80.160654,16.885015,Chillakallu Toll Plaza,Andhra Pradesh
80.2377078,15.698071,Chinaganjam Toll Plaza,Andhra Pradesh
80.2377078,15.698071,Chinaganjam Toll Plaza,Andhra Pradesh
74.5263213,16.4136232,Chinchani Toll Plaza,Karnataka
74.5263213,16.4136232,Chinchani Toll Plaza,Karnataka
80.2389319,13.2532411,Chinnamullaivoyal Toll Plaza,Tamil Nadu
80.2389319,13.2532411,Chinnamullaivoyal Toll Plaza,Tamil Nadu
79.5894634,13.7881724,Chinthalapalem Toll Plaza,Andhra Pradesh
78.1359766,9.8775731,Chinthamani Toll Plaza,Tamil Nadu
78.1359766,9.8775731,Chinthamani Toll Plaza,Tamil Nadu
79.9805323,17.4713042,Chinthapally Toll Plaza,Telangana
79.2802191,26.1610923,Chiriya Km 201 Toll Plaza,Uttar Pradesh
77.5803601,17.0798821,Chitlapalli Toll Plaza,Telangana
77.5803601,17.0798821,Chitlapalli Toll Plaza,Telangana
78.8087413,23.7259166,Chitora Toll Plaza,Madhya Pradesh
78.8087413,23.7259166,Chitora Toll Plaza,Madhya Pradesh
80.7445993,25.2514687,Chitrakoot/Bharatkup Km 04 Toll Plaza,Uttar Pradesh
78.2446554,9.9895943,Chittampatti Toll Plaza,Tamil Nadu
78.2446554,9.9895943,Chittampatti Toll Plaza,Tamil Nadu
78.338756,14.8118405,Chittimitti Chinthala Toll Plaza,Andhra Pradesh
78.4892333,26.3315641,Chittora Toll Plaza,Madhya Pradesh
75.2508571,22.9323231,Chokala Toll Plaza,Madhya Pradesh
77.1620066,13.3020161,Chokkenahalli Toll Plaza,Karnataka
77.1620066,13.3020161,Chokkenahalli Toll Plaza,Karnataka
77.576451,13.811786,Cholasamundram Toll Plaza,Andhra Pradesh
75.64049077,31.62397615,Chollang Toll Plaza,Punjab
75.64049077,31.62397615,Chollang Toll Plaza,Punjab
78.007587,26.4666278,Chonda Toll Plaza,Madhya Pradesh
81.346763,24.5479744,Choratha Toll Plaza,Madhya Pradesh
76.624,21.1621,Chorwad Check Post Toll Plaza,Maharashtra
72.9542229,21.3030748,Choryasi Toll Plaza,Gujarat
72.9542229,21.3030748,Choryasi Toll Plaza,Gujarat
77.875996,29.11587,Chota Mawana Toll Plaza,Uttar Pradesh
82.4799789,22.7662305,Chotiya Toll Plaza,Chhattisgarh
82.4799789,22.7662305,Chotiya Toll Plaza,Chhattisgarh
75.7859167,29.829229,Chottian User Toll Plaza,Punjab
77.9802319,26.4884208,Chounda Morena Flyover Toll Plaza,Madhya Pradesh
77.9802319,26.4884208,Chounda Morena Flyover Toll Plaza,Madhya Pradesh
78.0094659,26.4682131,Choundha Toll Plaza,Madhya Pradesh
77.6495778,24.0498785,Chourakheri Toll Plaza,Madhya Pradesh
77.5016407,12.8841583,Clever Leaf (P4) Toll Plaza,Karnataka
83.4340993,21.8172038,Cnaal Toll Plaza,Chhattisgarh
76.1019812,12.4428502,Coorgal Toll Plaza,Karnataka
79.5155972,14.6853379,D C Palli Toll Plaza,Andhra Pradesh
79.5155972,14.6853379,D C Palli Toll Plaza,Andhra Pradesh
72.8480977,22.413246,Dabhasi Toll Plaza,Gujarat
73.8714245,24.6492225,Dabok Toll Plaza,Rajasthan
74.7512062,29.9402019,Dabwali Toll Plaza,Haryana
76.304827,28.606077,Dadri Toll Plaza,Haryana
76.304827,28.606077,Dadri Toll Plaza,Haryana
74.8364916,22.7428792,Dattigaon Toll Plaza,Madhya Pradesh
82.99406372,25.24836215,Daffi Toll Plaza,Uttar Pradesh
82.99406372,25.24836215,Daffi Toll Plaza,Uttar Pradesh
78.4789044,25.6161077,Dagrai Toll Plaza,Madhya Pradesh
78.4789044,25.6161077,Dagrai Toll Plaza,Madhya Pradesh
90.7130877,26.4768992,Dahalapara Toll Plaza,Assam
90.7130877,26.4768992,Dahalapara Toll Plaza,Assam
76.9181647,29.3198014,Dahar Toll Plaza,Haryana
76.9181647,29.3198014,Dahar Toll Plaza,Haryana
72.8717564,19.2586529,Dahisar Toll Plaza,Maharashtra
73.7205278,24.5017918,Dakan Kotra Toll Plaza,Rajasthan
81.0661525,26.5245409,Dakhina Shekpur Toll Plaza,Uttar Pradesh
81.0661525,26.5245409,Dakhina Shekpur Toll Plaza,Uttar Pradesh
79.4239467,25.8647363,Dakore Km 164 Toll Plaza,Uttar Pradesh
70.9303314,23.9782,Dalawada Toll Plaza,Gujarat
84.0606505,25.5806703,Dalsagar Toll Plaza,Bihar
84.0606505,25.5806703,Dalsagar Toll Plaza,Bihar
78.5153734,13.0369241,Danamaiahgaaripalli Toll Plaza,Andhra Pradesh
78.5153734,13.0369241,Danamaiahgaaripalli Toll Plaza,Andhra Pradesh
75.0723545,22.4247601,Dangdiya Toll Plaza,Madhya Pradesh
73.231858,26.266826,Dangiyawas Toll Plaza,Rajasthan
88.288859,22.6988382,Dankuni Toll Plaza,West Bengal
88.288859,22.6988382,Dankuni Toll Plaza,West Bengal
76.0857853,16.1542714,Dannur Toll Plaza,Karnataka
74.9772849,30.8401266,Darapur Toll Plaza,Punjab
74.9772849,30.8401266,Darapur Toll Plaza,Punjab
70.3344417,20.9613223,Dari Toll Plaza,Gujarat
84.8929311,21.9314164,Darjing Toll Plaza,Odisha
84.8929311,21.9314164,Darjing Toll Plaza,Odisha
78.7554802,20.4498359,Daroada Toll Plaza,Maharashtra
78.7554802,20.4498359,Daroada Toll Plaza,Maharashtra
77.535962,28.6875785,Dasana Toll Plaza,Uttar Pradesh
77.535962,28.6875785,Dasana Toll Plaza,Uttar Pradesh
76.1796363,20.9727189,Dasarkhed Toll Plaza,Maharashtra
77.4954441,28.6750252,Dasna Dme Km 2760 Toll Plaza,Uttar Pradesh
77.4954441,28.6750252,Dasna Dme Km 2760 Toll Plaza,Uttar Pradesh
76.202461,20.826084,Datala Toll Plaza,Maharashtra
76.202461,20.826084,Datala Toll Plaza,Maharashtra
78.701949,25.716217,Datia-Bhander Toll Plaza,Madhya Pradesh
78.701949,25.716217,Datia-Bhander Toll Plaza,Madhya Pradesh
74.8364916,22.7428792,Dattigaon Toll Plaza,Madhya Pradesh
76.53033092,25.88392589,Daulatpura Toll Plaza,Rajasthan
75.8344465,27.0868395,Daulatpura Toll Plaza,Rajasthan
75.8344465,27.0868395,Daulatpura Toll Plaza,Rajasthan
80.7881245,16.4125264,Davaluri Toll Plaza,Andhra Pradesh
87.522859,22.396884,Debra Toll Plaza,West Bengal
87.522859,22.396884,Debra Toll Plaza,West Bengal
77.3523,18.3222,Degloor Check Post Toll Plaza,Karnataka
73.6921487,18.7002516,Dehuroad Nh48 Toll Plaza,Maharashtra
73.6921487,18.7002516,Dehuroad Nh48 Toll Plaza,Maharashtra
92.0476424,25.6488705,Deingpasoh Toll Plaza,Meghalaya
74.9967785,23.4174318,Delanpur Toll Plaza,Madhya Pradesh
72.5872969,26.3067119,Deogarh Toll Plaza,Rajasthan
80.263055,21.43425,Deori Border Checkpost Toll Plaza,Maharashtra
79.4757035,28.9307481,Deoriya Toll Plaza,Uttarakhand
69.4716572,23.1960264,Deshalpar Toll Plaza,Gujarat
73.360601,27.753685,Deshnok Toll Plaza,Rajasthan
77.6472356,13.1936004,Devanahalli Toll Plaza,Karnataka
77.6472356,13.1936004,Devanahalli Toll Plaza,Karnataka
77.6472356,13.1936004,Devanahalli Toll Plaza,Karnataka
77.6472356,13.1936004,Devanahalli Toll Plaza,Karnataka
76.2508754,16.4174999,Devarahulabagal Toll Plaza,Karnataka
79.8169355,24.7824402,Devgaon Toll Plaza,Madhya Pradesh
79.8169355,24.7824402,Devgaon Toll Plaza,Madhya Pradesh
77.7701938,24.5156009,Devkhedi Toll Plaza,Madhya Pradesh
76.0471971,22.929143,Dewas By Pass Toll Plaza,Madhya Pradesh
76.0471971,22.929143,Dewas By Pass Toll Plaza,Madhya Pradesh
75.0682504,28.3458569,Dhadhar Toll Plaza,Rajasthan
75.0682504,28.3458569,Dhadhar Toll Plaza,Rajasthan
78.1406983,20.7375232,Dhamangaon Toll Plaza,Maharashtra
78.1406983,20.7375232,Dhamangaon Toll Plaza,Maharashtra
74.99684426,23.41805978,Dhamnod Toll Plaza,Madhya Pradesh
75.5132989,22.2162677,Dhamnod Toll Plaza,Madhya Pradesh
75.5984567,25.0725406,Dhaneshwar Toll Plaza,Rajasthan
82.42257697,21.22692386,Dhank Toll Plaza,Chhattisgarh
82.42257697,21.22692386,Dhank Toll Plaza,Chhattisgarh
69.684741,22.2488499,Dharampur Danta Toll Plaza,Gujarat
69.684741,22.2488499,Dharampur Danta Toll Plaza,Gujarat
76.7593854,30.5929393,Dharer Azizpur Toll Plaza,Punjab
76.7593854,30.5929393,Dharer Azizpur Toll Plaza,Punjab
76.4995253,30.3912006,Dhareri Jattan Toll Plaza,Punjab
76.4995253,30.3912006,Dhareri Jattan Toll Plaza,Punjab
77.787632,18.2658952,Dharmaram Toll Plaza,Telangana
77.787632,18.2658952,Dharmaram Toll Plaza,Telangana
74.4110436,19.1560991,Dhoki Toll Plaza,Maharashtra
74.4110436,19.1560991,Dhoki Toll Plaza,Maharashtra
75.2083733,28.6678315,Dholiya Toll Plaza,Rajasthan
74.5196873,25.5329542,Dhulepura Toll Plaza,Rajasthan
70.3267031,21.7513616,Dhumiyani Toll Plaza,Gujarat
77.13994,20.01351,Dhumka Tondgaon Toll Plaza,Maharashtra
77.13994,20.01351,Dhumka Tondgaon Toll Plaza,Maharashtra
85.2404881,25.572391,Didarganj Toll Plaza,Bihar
76.62119594,28.77747583,Dighal Toll Plaza,Haryana
76.62119594,28.77747583,Dighal Toll Plaza,Haryana
78.2134023,19.0990341,Dilawarpur Toll Plaza,Telangana
77.3925734,13.078665,Doddakarenahalli Toll Plaza,Karnataka
77.024003,12.533502,Doddamavathuru Toll Plaza,Karnataka
76.945425,31.720926,Dolhu Nallah Toll Plaza,Himachal Pradesh
72.6733019,26.0627757,Doli Toll Plaza,Rajasthan
72.6733019,26.0627757,Doli Toll Plaza,Rajasthan
74.5745603,20.7662373,Dongrale Toll Plaza,Maharashtra
82.4749002,26.2835982,Dostpur Toll Plaza,Uttar Pradesh
78.8880152,18.0002163,Duddeda Toll Plaza,Telangana
78.8880152,18.0002163,Duddeda Toll Plaza,Telangana
77.47772,28.7379626,Duhai Toll Plaza,Uttar Pradesh
77.47772,28.7379626,Duhai Toll Plaza,Uttar Pradesh
83.3451672,17.8885982,Dukkavanipalem Toll Plaza,Andhra Pradesh
83.3451672,17.8885982,Dukkavanipalem Toll Plaza,Andhra Pradesh
83.3451672,17.8885982,Dukkavanipalem Toll Plaza,Andhra Pradesh
81.633657,27.578462,Dularpur Toll Plaza,Uttar Pradesh
74.0131927,19.2441755,Dumbarwadi Toll Plaza,Maharashtra
74.0131927,19.2441755,Dumbarwadi Toll Plaza,Maharashtra
70.3209445,21.7495983,Dumiyani Toll Booth NH27,Gujarat
78.7834478,14.624686,Dumpalagattu Paatimeeda Palli Toll Plaza,Andhra Pradesh
78.7834478,14.624686,Dumpalagattu Paatimeeda Palli Toll Plaza,Andhra Pradesh
77.4444647,28.6352945,Dundahera Dme Km 1990 Toll Plaza,Uttar Pradesh
78.2433538,17.3550809,Dundigal Toll Plaza,Telangana
76.3183413,26.6669066,Dungarpur Toll Plaza,Rajasthan
76.3183413,26.6669066,Dungarpur Toll Plaza,Rajasthan
78.8731848,13.7142622,Durgamvaripalli Toll Plaza,Andhra Pradesh
78.8731848,13.7142622,Durgamvaripalli Toll Plaza,Andhra Pradesh
78.8731848,13.7142622,Durgamvaripalli Toll Plaza,Andhra Pradesh
81.2879637,21.2145939,Durgbypass Toll Plaza,Chhattisgarh
81.2879637,21.2145939,Durgbypass Toll Plaza,Chhattisgarh
76.3180689,20.0341381,Dusarbid Toll Plaza,Maharashtra
76.3180689,20.0341381,Dusarbid Toll Plaza,Maharashtra
77.5193241,28.7040936,"Eastern Peripheral Expy, Kallu Garhi Toll Plaza",Uttar Pradesh
85.573642,23.1801618,Edalhatu Toll Plaza,Jharkhand
85.573642,23.1801618,Edalhatu Toll Plaza,Jharkhand
78.2491863,17.4631571,Edulanagulapally Toll Plaza,Telangana
81.8275702,16.7152749,Eethakota At Km.946.300 Toll Plaza,Andhra Pradesh
81.8275702,16.7152749,Eethakota At Km.946.300 Toll Plaza,Andhra Pradesh
81.8275702,16.7152749,Eethakota At Km.946.300 Toll Plaza,Andhra Pradesh
81.8275702,16.7152749,Eethakota At Km.946.300 Toll Plaza,Andhra Pradesh
81.8275702,16.7152749,Eethakota At Km.946.300 Toll Plaza,Andhra Pradesh
81.8275702,16.7152749,Eethakota At Km.946.300 Toll Plaza,Andhra Pradesh
80.1981201,12.8903033,Egatur Toll Plaza,Tamil Nadu
80.1981201,12.8903033,Egatur Toll Plaza,Tamil Nadu
78.6881905,22.1914044,Eklehra Toll Plaza,Madhya Pradesh
79.9282991,16.107884,Elchuru Toll Plaza,Andhra Pradesh
79.9282991,16.107884,Elchuru Toll Plaza,Andhra Pradesh
77.6718006,12.84615,Electronic City Phase 1 Toll Plaza,Karnataka
78.0950206,9.7825415,Elliyarpathy Toll Plaza,Tamil Nadu
79.0690826,12.2873114,Enamkariyandal Toll Plaza,Tamil Nadu
79.0690826,12.2873114,Enamkariyandal Toll Plaza,Tamil Nadu
77.522138,28.7043077,Epe Rasoolpur Toll Plaza,Uttar Pradesh
77.522138,28.7043077,Epe Rasoolpur Toll Plaza,Uttar Pradesh
79.3800918,16.5409784,Ethipothala Emc Check Post Toll Plaza,Andhra Pradesh
77.9143524,9.3853728,Etturvattam Toll Plaza,Tamil Nadu
77.9143524,9.3853728,Etturvattam Toll Plaza,Tamil Nadu
77.1903575,23.2243383,Fanda Toll Plaza,Madhya Pradesh
79.523939,28.234589,Faridpur Toll Plaza,Uttar Pradesh
79.523939,28.234589,Faridpur Toll Plaza,Uttar Pradesh
76.856801,28.455781,Farukhnagar Toll Plaza,Haryana
76.856801,28.455781,Farukhnagar Toll Plaza,Haryana
76.5730701,25.1217538,Fatehpur Toll Plaza,Rajasthan
76.5730701,25.1217538,Fatehpur Toll Plaza,Rajasthan
77.588983,28.437396,Fatehpur Rampur Toll Plaza,Uttar Pradesh
77.588983,28.437396,Fatehpur Rampur Toll Plaza,Uttar Pradesh
74.7739564,30.8694075,Ferozeshah Toll Plaza,Punjab
79.4192001,22.043479,Fulara Toll Plaza,Madhya Pradesh
79.4192001,22.043479,Fulara Toll Plaza,Madhya Pradesh
82.8620799,26.159309,Fulvariya Toll Plaza,Uttar Pradesh
77.7485584,24.6699204,Futera Toll Plaza,Madhya Pradesh
75.1398987,15.3186326,Gabbur Toll Plaza,Karnataka
77.9465697,28.0626932,Gabhana Toll Plaza,Uttar Pradesh
77.9465697,28.0626932,Gabhana Toll Plaza,Uttar Pradesh
79.6733857,23.3018395,Gadaghat Toll Plaza,Madhya Pradesh
79.6733857,23.3018395,Gadaghat Toll Plaza,Madhya Pradesh
79.1883068,13.4788727,Gadanki Toll Plaza,Andhra Pradesh
79.1883068,13.4788727,Gadanki Toll Plaza,Andhra Pradesh
82.4915518,24.1463378,Gadariya Toll Plaza,Madhya Pradesh
77.7379761,21.92022,Gadha Toll Plaza,Madhya Pradesh
70.2954205,21.4252623,Gadoi Toll Plaza,Gujarat
77.2905541,28.249093,Gadpuri Toll Plaza,Haryana
73.234089,25.8232645,Gajangarh Toll Plaza,Rajasthan
91.0488899,26.4422694,Galia Toll Plaza,Assam
91.0488899,26.4422694,Galia Toll Plaza,Assam
78.3624895,19.0266144,Gamjal Toll Plaza,Telangana
78.3624895,19.0266144,Gamjal Toll Plaza,Telangana
76.7603192,12.4727851,Gananguru Toll Plaza,Karnataka
74.5038589,15.6932135,Ganebail Toll Plaza,Karnataka
72.61884,28.475248,Gangajali Toll Plaza,Rajasthan
78.8269163,22.1221953,Gangiwara Toll Plaza,Madhya Pradesh
79.097685,15.9299861,Ganpathiforestcheckpost Toll Plaza,Andhra Pradesh
75.6443101,24.2982939,"Garoth Junction, Delhi-Mumbai Experessway Toll Plaza",Madhya Pradesh
73.0187547,18.9519823,Gavhan Toll Plaza,Maharashtra
77.8625207,20.621661,Gavner Talegaon Shivni Toll Plaza,Maharashtra
77.8625207,20.621661,Gavner Talegaon Shivni Toll Plaza,Maharashtra
88.18255524,25.19596609,Gazole Toll Plaza,West Bengal
88.18255524,25.19596609,Gazole Toll Plaza,West Bengal
76.546748,26.3785639,Gb(Newadiya) Toll Plaza,Rajasthan
74.7800782,26.5510356,Gegal Toll Plaza,Rajasthan
74.7800782,26.5510356,Gegal Toll Plaza,Rajasthan
76.7368378,30.4037963,Ghagghar Toll Plaza,Haryana
76.7368378,30.4037963,Ghagghar Toll Plaza,Haryana
74.7845327,19.8937206,Ghaigaon Jambargaon Toll Plaza,Maharashtra
74.7845327,19.8937206,Ghaigaon Jambargaon Toll Plaza,Maharashtra
77.0680878,28.334735,Ghamroj Sohna Road Toll Plaza,Haryana
77.0680878,28.334735,Ghamroj Sohna Road Toll Plaza,Haryana
85.9481684,24.0306507,Ghanghri Toll Plaza,Jharkhand
85.9481684,24.0306507,Ghanghri Toll Plaza,Jharkhand
81.395713,26.613176,Gharkuiya Toll Plaza,Uttar Pradesh
76.9781113,29.5824826,Gharonda Toll Plaza,Haryana
76.9781113,29.5824826,Gharonda Toll Plaza,Haryana
76.9937431,27.765635,Ghata Samsabad Toll Plaza,Haryana
75.5692668,22.6445544,Ghatabillod Toll Plaza,Madhya Pradesh
75.5692668,22.6445544,Ghatabillod Toll Plaza,Madhya Pradesh
78.3999799,17.2635132,Ghatkesar Toll Plaza,Telangana
89.6189424,26.3052749,Ghogarkuthi Toll Plaza,West Bengal
78.025027,22.125288,Ghoradongri Toll Plaza,Madhya Pradesh
78.025027,22.125288,Ghoradongri Toll Plaza,Madhya Pradesh
73.6148021,19.7088664,Ghoti Toll Plaza,Maharashtra
73.6148021,19.7088664,Ghoti Toll Plaza,Maharashtra
76.144022,30.84522,Ghulal Toll Plaza,Punjab
74.9674083,15.4608344,Goa Toll Plaza,Karnataka
75.0581381,29.1343611,Gogamedi Toll Plaza,Rajasthan
73.6454253,27.2521763,Gogelao Toll Plaza,Rajasthan
73.5236481,24.7660669,Gogunda Toll Plaza,Rajasthan
77.3996691,23.396221,Golkheri Toll Plaza,Madhya Pradesh
82.271843,17.139122,Gollaprolu Toll Plaza,Andhra Pradesh
82.271843,17.139122,Gollaprolu Toll Plaza,Andhra Pradesh
82.271843,17.139122,Gollaprolu Toll Plaza,Andhra Pradesh
74.0689401,19.7900785,Gonde Toll Plaza,Maharashtra
74.0689401,19.7900785,Gonde Toll Plaza,Maharashtra
78.89657,21.1366609,Gondkhairi Toll Plaza,Maharashtra
78.89657,21.1366609,Gondkhairi Toll Plaza,Maharashtra
82.4794995,25.1664995,Gopalpur Toll Plaza,Uttar Pradesh
82.4794995,25.1664995,Gopalpur Toll Plaza,Uttar Pradesh
75.0935213,25.2739323,Gopalpura Toll Plaza,Rajasthan
78.832752,25.9716536,Goragaon Toll Plaza,Madhya Pradesh
78.832752,25.9716536,Goragaon Toll Plaza,Madhya Pradesh
84.0409791,18.619941,Gorribanda Toll Plaza,Andhra Pradesh
69.9099363,21.3182776,Gorsar Toll Plaza,Gujarat
83.2121582,17.7138902,Goshtani Gate Toll Plaza,Andhra Pradesh
83.6808719,21.7701627,Govindpur Toll Plaza,Odisha
80.67965797,17.26814649,Gowraram Toll Plaza,Telangana
80.67965797,17.26814649,Gowraram Toll Plaza,Telangana
89.7558706,26.4766276,Guabari Toll Plaza,West Bengal
77.153308,13.022707,Gudemaranahalli Toll Plaza,Karnataka
85.6684031,20.2036045,Gudipada Or Gangapada Toll Plaza,Odisha
85.6684031,20.2036045,Gudipada Or Gangapada Toll Plaza,Odisha
73.9997559,24.4035907,Gudli Toll Plaza,Rajasthan
78.82135,17.4855493,Guduru Toll Plaza,Telangana
76.5601796,14.0535343,Guilalu Toll Plaza,Karnataka
76.5601796,14.0535343,Guilalu Toll Plaza,Karnataka
81.5264719,27.8270883,Gulalpurva Toll Plaza,Uttar Pradesh
81.5264719,27.8270883,Gulalpurva Toll Plaza,Uttar Pradesh
82.9241476,27.4437988,Gulhaura Toll Plaza,Uttar Pradesh
82.9241476,27.4437988,Gulhaura Toll Plaza,Uttar Pradesh
75.938269,25.9929345,Gumanpura Toll Plaza,Rajasthan
78.3690734,17.673115,Gummadidala Toll Plaza,Telangana
77.5126405,13.4290972,Gunjur Toll Plaza,Karnataka
77.5126405,13.4290972,Gunjur Toll Plaza,Karnataka
85.1400767,19.6382311,Gurapali Toll Plaza,Odisha
85.1400767,19.6382311,Gurapali Toll Plaza,Odisha
78.7771289,26.9979141,Gurau (Formerly Semra Atikaba Toll Plaza,Uttar Pradesh
78.7745392,26.9968178,Gurau Toll Plaza,Uttar Pradesh
82.1094796,24.7423271,GVR Behari Toll Plaza,Madhya Pradesh
73.7686867,26.902165,Gwaloo Toll Plaza,Rajasthan
74.5846,21.2538,Hadakhed Border Checkpost Toll Plaza,Maharashtra
74.9499405,19.9313803,Hadas Pimpalgaon Toll Plaza,Maharashtra
74.9499405,19.9313803,Hadas Pimpalgaon Toll Plaza,Maharashtra
82.802275,26.137818,Hadwa Toll Plaza,Uttar Pradesh
82.802275,26.137818,Hadwa Toll Plaza,Uttar Pradesh
78.873033,20.852147,Haladgao Toll Plaza,Maharashtra
77.4538423,15.8190584,Halaharvi Toll Plaza,Andhra Pradesh
77.4538423,15.8190584,Halaharvi Toll Plaza,Andhra Pradesh
77.4538423,15.8190584,Halaharvi Toll Plaza,Andhra Pradesh
81.767436,26.512745,Haliyapur Toll Plaza,Uttar Pradesh
75.8551,15.3909,Halligudi Toll Plaza,Karnataka
75.8551,15.3909,Halligudi Toll Plaza,Karnataka
73.46537,22.4899052,Halol Toll Plaza,Gujarat
73.46537,22.4899052,Halol Toll Plaza,Gujarat
79.6940665,25.6335851,Hamirpur Km 125 Toll Plaza,Uttar Pradesh
75.3470298,14.5615075,Hamsabhavi Toll Plaza,Karnataka
82.153785,25.3788318,Handia Toll Plaza,Uttar Pradesh
82.157186,25.3784365,Handiya (Sujala ) Toll Plaza,Uttar Pradesh
74.3359426,29.5199622,Hanumangarh Toll Plaza,Rajasthan
73.87425,29.8105744,Hanumangarh Toll Plaza,Rajasthan
79.6101261,23.8496372,Harduwani (Damoh) Toll Plaza,Madhya Pradesh
79.6101261,23.8496372,Harduwani (Damoh) Toll Plaza,Madhya Pradesh
87.4428047,26.152746,Hariabara Toll Plaza,Bihar
84.2486539,24.5058349,Hariharnath Toll Plaza,Jharkhand
73.8398793,27.2553568,Harimma Toll Plaza,Rajasthan
73.8398793,27.2553568,Harimma Toll Plaza,Rajasthan
73.8398793,27.2553568,Harimma Toll Plaza,Rajasthan
75.9751401,14.806446,Harpanahalli Toll Plaza,Karnataka
81.7543869,25.1154169,Harro Near Ganne Toll Plaza,Uttar Pradesh
81.7543869,25.1154169,Harro Near Ganne Toll Plaza,Uttar Pradesh
75.61428695,32.06178592,Harsa Mansar Toll Plaza,Punjab
75.61428695,32.06178592,Harsa Mansar Toll Plaza,Punjab
78.121077,23.018177,Harshili Toll Plaza,Madhya Pradesh
78.121077,23.018177,Harshili Toll Plaza,Madhya Pradesh
76.6833938,17.0215108,Harwal Toll Plaza,Karnataka
86.1173884,21.14661,Hasanpur Toll Plaza,Odisha
71.4078337,25.5647594,Hathitala Toll Plaza,Rajasthan
71.4078337,25.5647594,Hathitala Toll Plaza,Rajasthan
73.545512,16.611829,Hativale Toll Plaza,Maharashtra
75.1305675,20.192863,Hatnur Toll Plaza,Maharashtra
75.1305675,20.192863,Hatnur Toll Plaza,Maharashtra
79.5516532,24.1230312,Hatta Toll Plaza,Madhya Pradesh
74.51696,16.1433,Hattargi Toll Plaza,Karnataka
74.51696,16.1433,Hattargi Toll Plaza,Karnataka
82.7250965,25.6760483,Hauj Toll Plaza,Uttar Pradesh
82.7250965,25.6760483,Hauj Toll Plaza,Uttar Pradesh
76.10668206,14.37575434,Hebbalu Toll Plaza,Karnataka
76.10668206,14.37575434,Hebbalu Toll Plaza,Karnataka
75.5470961,14.5470099,Hediyala Toll Plaza,Karnataka
75.5470961,14.5470099,Hediyala Toll Plaza,Karnataka
76.801104,23.98798,Heeran Khedi Toll Plaza,Madhya Pradesh
76.801104,23.98798,Heeran Khedi Toll Plaza,Madhya Pradesh
74.7845618,13.1081587,Hejamadi Toll Plaza,Karnataka
77.1242045,28.2128673,Hilalpur Toll Plaza,Haryana
77.1242045,28.2128673,Hilalpur Toll Plaza,Haryana
73.853973,29.1012213,Hindore Toll Plaza,Rajasthan
73.853973,29.1012213,Hindore Toll Plaza,Rajasthan
78.9812401,21.1368175,Hinga Toll Plaza,Maharashtra
78.9764911,21.0929274,Hingana Road Toll Plaza,Maharashtra
78.9764911,21.0929274,Hingana Road Toll Plaza,Maharashtra
75.9247,26.8509,Hingonia Toll Plaza,Rajasthan
75.9247,26.8509,Hingonia Toll Plaza,Rajasthan
79.830014,20.104946,Hirapur Toll Plaza,Maharashtra
74.6478483,15.7630685,Hirebgewadi Toll Plaza,Karnataka
74.6478483,15.7630685,Hirebgewadi Toll Plaza,Karnataka
76.6645871,14.5251023,Hirehalli Toll Plaza,Karnataka
76.2985608,15.7729777,Hiremannapur Toll Plaza,Karnataka
76.2985608,15.7729777,Hiremannapur Toll Plaza,Karnataka
76.3090223,15.3270667,Hitnal Toll Plaza,Karnataka
76.3090223,15.3270667,Hitnal Toll Plaza,Karnataka
80.2508569,28.265214,Hitouta Toll Plaza,Uttar Pradesh
80.2508569,28.265214,Hitouta Toll Plaza,Uttar Pradesh
74.200879,19.5143978,Hiwargaon Pavasa Toll Plaza,Maharashtra
74.1964302,19.5152066,Hiwargaon Pawasa Toll Plaza,Maharashtra
74.4191054,14.3592071,Holgegadde Toll Plaza,Karnataka
77.770472,13.059797,Hoskote Toll Plaza,Karnataka
77.770472,13.059797,Hoskote Toll Plaza,Karnataka
77.770472,13.059797,Hoskote Toll Plaza,Karnataka
77.655833,12.858667,Hosur Road (P1) Toll Plaza,Karnataka
73.5195409,22.6475073,HSTL TP01- Khadki Toll Plaza,Gujarat
73.5195409,22.6475073,HSTL TP01- Khadki Toll Plaza,Gujarat
73.5152351,23.3639618,HSTL Tp03- Galiya Danti Toll Plaza,Gujarat
73.5152351,23.3639618,HSTL Tp03- Galiya Danti Toll Plaza,Gujarat
73.3034759,23.5050913,HSTL Tp04- Gajan Toll Plaza,Gujarat
73.3034759,23.5050913,HSTL Tp04- Gajan Toll Plaza,Gujarat
73.6180402,23.0127692,HSTLtp02-Gaman Bariyanamuvada Toll Plaza,Gujarat
73.6180402,23.0127692,HSTLtp02-Gaman Bariyanamuvada Toll Plaza,Gujarat
77.3475844,13.2710263,Hulikunte Toll Plaza,Karnataka
88.91929,26.5603733,Husludanga Toll Plaza,West Bengal
88.91929,26.5603733,Husludanga Toll Plaza,West Bengal
78.301089,20.5512,Husnapur Toll Plaza,Maharashtra
92.2742007,25.4675143,Ialong Toll Plaza,Meghalaya
75.5910059,17.592448,Ichgaon Toll Plaza,Maharashtra
75.5910059,17.592448,Ichgaon Toll Plaza,Maharashtra
80.7788699,24.3494061,Ichoul Toll Plaza,Madhya Pradesh
75.938208,22.822692,IDTL -A Toll Plaza,Madhya Pradesh
75.938208,22.822692,IDTL -A Toll Plaza,Madhya Pradesh
76.083811,22.9604489,IDTL -B Toll Plaza,Madhya Pradesh
76.083811,22.9604489,IDTL -B Toll Plaza,Madhya Pradesh
77.1155492,28.5436113,IGI Toll Plaza,Delhi
78.2395045,18.5391673,Indalwai Toll Plaza,Telangana
78.2395045,18.5391673,Indalwai Toll Plaza,Telangana
77.3447134,28.6318004,Indirapuram Dme Km 9500 Toll Plaza,Uttar Pradesh
77.3447134,28.6318004,Indirapuram Dme Km 9500 Toll Plaza,Uttar Pradesh
76.1693395,25.7438995,Indragarh Toll Plaza,Rajasthan
73.459836,25.829753,Indranagar Toll Plaza,Rajasthan
80.88360698,27.10353952,Itaunja Toll Plaza,Uttar Pradesh
80.88360698,27.10353952,Itaunja Toll Plaza,Uttar Pradesh
81.2857111,25.999509,Itora Buzurg Toll Plaza,Uttar Pradesh
81.2857111,25.999509,Itora Buzurg Toll Plaza,Uttar Pradesh
77.15136691,11.09521275,Kaniyur Toll Plaza,Tamil Nadu
77.15136691,11.09521275,Kaniyur Toll Plaza,Tamil Nadu
77.15136691,11.09521275,Kaniyur Toll Plaza,Tamil Nadu
77.15136691,11.09521275,Kaniyur Toll Plaza,Tamil Nadu
77.15136691,11.09521275,Kaniyur Toll Plaza,Tamil Nadu
73.452595,25.8284179,Jadan Toll Plaza NHAI,Rajasthan
77.611927,29.467707,Jagaheri Toll Plaza,Uttar Pradesh
75.4396511,30.4024658,Jagjitpura Toll Plaza,Punjab
75.4396511,30.4024658,Jagjitpura Toll Plaza,Punjab
78.8839306,29.2448802,Jagtapur Patti Toll Plaza,Uttarakhand
78.8839306,29.2448802,Jagtapur Patti Toll Plaza,Uttarakhand
81.4196385,20.604713,Jagtara Toll Plaza,Chhattisgarh
81.4196385,20.604713,Jagtara Toll Plaza,Chhattisgarh
75.6155475,26.8432591,Jaipur Toll Plaza,Rajasthan
75.6155475,26.8432591,Jaipur Toll Plaza,Rajasthan
79.6005617,22.5476424,Jaitpur Toll Plaza,Madhya Pradesh
74.0283396,28.8847182,Jaitpur Toll Plaza,Rajasthan
74.0283396,28.8847182,Jaitpur Toll Plaza,Rajasthan
76.8343304,14.9813715,Jajirakallu Toll Plaza,Andhra Pradesh
76.8343304,14.9813715,Jajirakallu Toll Plaza,Andhra Pradesh
73.1656843,26.4003868,Jajiwal Gehlota Toll Plaza,Rajasthan
88.1817649,22.5731795,Jaladhulagori Toll Plaza,West Bengal
88.1817649,22.5731795,Jaladhulagori Toll Plaza,West Bengal
76.9462455,30.5853689,Jaloli Toll Plaza,Haryana
76.9462455,30.5853689,Jaloli Toll Plaza,Haryana
75.1011203,33.5685651,Jamia Masjid Ujroo Toll Plaza,Jammu and Kashmir
75.1011203,33.5685651,Jamia Masjid Ujroo Toll Plaza,Jammu and Kashmir
75.1562748,21.7564403,Jamli Pllaza Toll Plaza,Madhya Pradesh
75.25813,21.92827,Jamli Toll Plaza,Madhya Pradesh
69.914093,22.427211,Jamnagar Bypass-Vadinar Toll Plaza,Gujarat
69.914093,22.427211,Jamnagar Bypass-Vadinar Toll Plaza,Gujarat
85.1191456,21.9917803,Jamudihi Toll Plaza,Odisha
85.1191456,21.9917803,Jamudihi Toll Plaza,Odisha
85.373375,21.448549,Janasanpur Toll Plaza,Odisha
85.373375,21.448549,Janasanpur Toll Plaza,Odisha
79.2551308,17.5862046,Jangaon Suryapet Highway Singarajupally Toll Plaza,Telangana
72.9778198,26.6176178,Jasnathnagar Toll Plaza,Rajasthan
72.9778198,26.6176178,Jasnathnagar Toll Plaza,Rajasthan
76.4442789,21.7876065,Jaswadi Toll Plaza,Madhya Pradesh
72.4590951,24.8243427,Jaswantpura Toll Plaza,Rajasthan
74.3031699,25.9567539,Jaswantpura Toll Plaza,Rajasthan
76.613363,28.275006,Jat Gangaicha Toll Plaza,Haryana
76.613363,28.275006,Jat Gangaicha Toll Plaza,Haryana
76.613363,28.275006,Jat Gangaicha Toll Plaza,Haryana
76.1794815,28.1211933,Jat Guwana Toll Plaza,Haryana
76.1794815,28.1211933,Jat Guwana Toll Plaza,Haryana
72.9063357,26.9527372,Jathon Toll Plaza,Rajasthan
75.323065,31.499318,Jatl Dhilwan Toll Plaza,Punjab
75.323065,31.499318,Jatl Dhilwan Toll Plaza,Punjab
74.9972238,31.5776948,Jatl Nijjerpura Toll Plaza,Punjab
74.9972238,31.5776948,Jatl Nijjerpura Toll Plaza,Punjab
75.9821208,13.7947182,Javoor Toll Plaza,Karnataka
75.9821208,13.7947182,Javoor Toll Plaza,Karnataka
80.0284,18.212011,Jawahar Nagar Toll Plaza,Telangana
80.0284,18.212011,Jawahar Nagar Toll Plaza,Telangana
77.3490203,17.1288911,Jawahar Nagar Toll Plaza,Karnataka
86.0443263,23.6681959,Jbora Toll Plaza,Jharkhand
86.0443263,23.6681959,Jbora Toll Plaza,Jharkhand
88.0535763,26.34924,Jeerangachh Toll Plaza,Bihar
78.144507,14.168867,Jellipalli Toll Plaza,Andhra Pradesh
78.144507,14.168867,Jellipalli Toll Plaza,Andhra Pradesh
77.575418,28.11465,Jewar Toll Plaza,Uttar Pradesh
77.575418,28.11465,Jewar Toll Plaza,Uttar Pradesh
83.4340993,21.8172038,Jhalmala Toll Plaza,Chhattisgarh
76.952547,28.9225031,Jharoti Toll Plaza,Haryana
76.952547,28.9225031,Jharoti Toll Plaza,Haryana
86.6357954,22.1806112,Jharpokharia Toll Plaza,Odisha
86.6357954,22.1806112,Jharpokharia Toll Plaza,Odisha
81.4111,24.5702,Jhiriya Toll Plaza,Madhya Pradesh
80.684727,25.8587402,Jindpur Toll Plaza,Uttar Pradesh
80.684727,25.8587402,Jindpur Toll Plaza,Uttar Pradesh
77.2770558,29.1645497,Jiwana Toll Plaza,Uttar Pradesh
77.2770558,29.1645497,Jiwana Toll Plaza,Uttar Pradesh
77.9155516,14.9877002,Jodi Dharmapuram Toll Plaza,Andhra Pradesh
77.9155516,14.9877002,Jodi Dharmapuram Toll Plaza,Andhra Pradesh
74.7514268,29.9621364,Jogewal Toll Plaza,Haryana
76.9849636,24.0884573,Jogipur Toll Plaza,Madhya Pradesh
81.4031707,24.5488719,Jognihai Toll Plaza,Madhya Pradesh
78.5455386,23.7972063,Johariya Sheikh Toll Plaza,Madhya Pradesh
78.5455386,23.7972063,Johariya Sheikh Toll Plaza,Madhya Pradesh
74.625598,25.0829781,Jojro Ka Kheda Toll Plaza,Rajasthan
83.407779,18.0112654,Jonnada Toll Plaza,Andhra Pradesh
81.2751472,25.2462247,Jorwara Toll Plaza,Uttar Pradesh
81.2751472,25.2462247,Jorwara Toll Plaza,Uttar Pradesh
78.4215673,28.836671,Joya Toll Plaza,Uttar Pradesh
76.4254498,29.0983865,Julana Toll Plaza,Haryana
75.2218139,21.8564553,Julwaniya Toll Plaza,Madhya Pradesh
75.2218139,21.8564553,Julwaniya Toll Plaza,Madhya Pradesh
79.1506863,22.3779242,Jungawani Toll Plaza,Madhya Pradesh
79.1506863,22.3779242,Jungawani Toll Plaza,Madhya Pradesh
77.4686378,12.9194122,K N Huindy Toll Plaza,Karnataka
77.4686378,12.9194122,K N Huindy Toll Plaza,Karnataka
74.701976,16.359437,Kabbur Toll Plaza,Karnataka
76.9222844,23.8624223,Kachnaria Toll Plaza,Madhya Pradesh
76.9222844,23.8624223,Kachnaria Toll Plaza,Madhya Pradesh
76.6210313,12.957422,Kadabahalli Toll Plaza,Karnataka
76.6210313,12.957422,Kadabahalli Toll Plaza,Karnataka
76.6222499,12.9582334,Kadabhalli (Kirasave) Pl Toll Plaza,Karnataka
84.3135625,20.9590625,Kadaligarh Toll Plaza,Odisha
77.5528493,13.2116847,Kadathanamale Toll Plaza,Karnataka
77.5528493,13.2116847,Kadathanamale Toll Plaza,Karnataka
78.5077593,16.9703587,Kadthal Toll Plaza,Telangana
78.5077593,16.9703587,Kadthal Toll Plaza,Telangana
77.2972627,23.2610018,Kahjuri Sadak Toll Plaza,Madhya Pradesh
75.0406676,33.8743618,Kaichachkoot Toll Plaza,Jammu and Kashmir
75.0406676,33.8743618,Kaichachkoot Toll Plaza,Jammu and Kashmir
75.0423986,33.874125,Kaichakoot Toll Plaza,Jammu and Kashmir
71.2054167,26.6302996,Kair Fakir Ki Dhani Toll Plaza,Rajasthan
83.1476426,25.4949044,Kaithi Toll Plaza,Uttar Pradesh
79.3263588,26.7940559,Kakrahi Km 280 Toll Plaza,Uttar Pradesh
74.2603529,30.10524,Kala Tibba Toll Plaza,Punjab
76.1462412,30.2651485,Kalajhar Toll Plaza,Punjab
76.1462412,30.2651485,Kalajhar Toll Plaza,Punjab
74.9143234,30.8245229,Kalan Toll Plaza,Punjab
81.022221,16.6763976,Kalaparru Toll Plaza,Andhra Pradesh
86.9363618,23.2179345,Kalapathar Toll Plaza,West Bengal
74.6306101,27.0402166,Kalawa Toll Plaza,Rajasthan
75.0051735,15.3971226,Kalghatgi Toll Plaza,Karnataka
77.1131816,28.0232023,Kalinger Toll Plaza,Haryana
77.1131816,28.0232023,Kalinger Toll Plaza,Haryana
78.9671143,10.9969028,Kallakudi Toll Plaza,Tamil Nadu
78.9671143,10.9969028,Kallakudi Toll Plaza,Tamil Nadu
78.9671143,10.9969028,Kallakudi Toll Plaza,Tamil Nadu
75.5345,14.0805,Kallapura Toll Plaza,Karnataka
75.0347506,23.2251601,Kalmora Toll Plaza,Madhya Pradesh
75.0347506,23.2251601,Kalmora Toll Plaza,Madhya Pradesh
86.9363618,23.2179345,Kalpathar Toll Plaza,West Bengal
77.6503778,24.1269737,Kalyanpura Toll Plaza,Madhya Pradesh
77.6503778,24.1269737,Kalyanpura Toll Plaza,Madhya Pradesh
77.8196024,17.6456314,Kamkole Toll Plaza,Telangana
77.8196024,17.6456314,Kamkole Toll Plaza,Telangana
79.2496742,21.2442417,Kamptee Kanhan Bypass Check T Toll Plaza,Maharashtra
79.2496742,21.2442417,Kamptee Kanhan Bypass Check T Toll Plaza,Maharashtra
77.4492002,17.8473165,Kamthana Toll Plaza,Karnataka
77.4492002,17.8473165,Kamthana Toll Plaza,Karnataka
77.5274619,12.857774,Kanakapura Road (P3) Toll Plaza,Karnataka
76.4268831,14.5381083,Kananakatte Toll Plaza,Karnataka
76.4268831,14.5381083,Kananakatte Toll Plaza,Karnataka
85.4935831,22.0523871,Kandra Toll Plaza,Odisha
85.4935831,22.0523871,Kandra Toll Plaza,Odisha
77.4310836,12.8595786,Kaniminike Toll Plaza,Karnataka
77.4310836,12.8595786,Kaniminike Toll Plaza,Karnataka
77.15136691,11.09521275,Kaniyur Toll Plaza,Tamil Nadu
76.9959872,11.9803979,Kannegala Toll Plaza,Karnataka
76.9959872,11.9803979,Kannegala Toll Plaza,Karnataka
76.7079747,17.3950797,Kannole Toll Plaza,Karnataka
76.7079747,17.3950797,Kannole Toll Plaza,Karnataka
76.7079747,17.3950797,Kannole Toll Plaza,Karnataka
72.1462,24.31493,Kansari Toll Plaza,Gujarat
72.1462,24.31493,Kansari Toll Plaza,Gujarat
85.8260561,21.5082779,Kantaghar Toll Plaza,Odisha
78.0111885,9.8442787,Kappalur Toll Plaza,Tamil Nadu
78.0111885,9.8442787,Kappalur Toll Plaza,Tamil Nadu
76.7685644,12.9626449,Karabylu Toll Plaza,Karnataka
77.0879855,25.5139183,Karahal Toll Plaza,Madhya Pradesh
75.0497723,31.0532558,Karahewala Toll Plaza,Punjab
75.0497723,31.0532558,Karahewala Toll Plaza,Punjab
79.4349819,26.5012167,Karampur Km 243 Toll Plaza,Uttar Pradesh
78.3880168,21.157636,Karanja Toll Plaza,Maharashtra
78.3880168,21.157636,Karanja Toll Plaza,Maharashtra
77.459837,20.5153476,Karanja Lad Toll Plaza,Maharashtra
77.459837,20.5153476,Karanja Lad Toll Plaza,Maharashtra
84.6380463,19.0563687,Karapadu Toll Plaza,Andhra Pradesh
79.67284045,21.1396132,Kardha Toll Plaza,Maharashtra
79.67284045,21.1396132,Kardha Toll Plaza,Maharashtra
73.3524169,24.2127734,Karel Toll Plaza,Rajasthan
85.507067,24.688738,Karigawan Toll Plaza,Bihar
85.507067,24.688738,Karigawan Toll Plaza,Bihar
75.0647902,15.7390182,Karikatti Toll Plaza,Karnataka
76.9538076,13.6118325,Karjeevanhally Toll Plaza,Karnataka
76.9538076,13.6118325,Karjeevanhally Toll Plaza,Karnataka
77.4026664,27.8553906,Karman Toll Plaza,Haryana
75.1981289,19.8902365,Karodi Toll Plaza,Maharashtra
75.1981289,19.8902365,Karodi Toll Plaza,Maharashtra
75.0127319,15.4460761,Karwar Toll Plaza,Karnataka
74.8114369,27.0228576,Kasari Toll Plaza,Rajasthan
77.630328,15.061754,Kasepalli Toll Plaza,Andhra Pradesh
77.630328,15.061754,Kasepalli Toll Plaza,Andhra Pradesh
72.7807794,21.7152607,Kasherol Toll Plaza,Gujarat
77.6443459,28.8968725,Kashi Dme Km 5823 Toll Plaza,Uttar Pradesh
72.8285425,23.4102017,Kathpur Toll Plaza,Gujarat
72.8285425,23.4102017,Kathpur Toll Plaza,Gujarat
76.360442,28.141642,Kathuwas Toll Plaza,Haryana
76.360442,28.141642,Kathuwas Toll Plaza,Haryana
81.1704217,25.7495002,Katoghan Toll Plaza,Uttar Pradesh
81.1704217,25.7495002,Katoghan Toll Plaza,Uttar Pradesh
79.0320896,21.1842307,Katol Road Toll Plaza,Maharashtra
79.0320896,21.1842307,Katol Road Toll Plaza,Maharashtra
76.0409283,23.2293053,Kaytha Toll Plaza,Madhya Pradesh
80.533416,16.385156,Kaza Mangalgiri Toll Plaza,Andhra Pradesh
80.3243561,16.7181505,Keesara (NH-65) Toll Plaza,Andhra Pradesh
80.3243561,16.7181505,Keesara (NH-65) Toll Plaza,Andhra Pradesh
80.2390978,16.741555,Keesara Gate Toll Plaza,Andhra Pradesh
80.2390978,16.741555,Keesara Gate Toll Plaza,Andhra Pradesh
80.2390978,16.741555,Keesara Gate Toll Plaza,Andhra Pradesh
80.2390978,16.741555,Keesara Gate Toll Plaza,Andhra Pradesh
78.385202,17.310012,Keesara Toll Plaza,Telangana
78.8982363,12.3822934,Keezhkuppam Toll Plaza,Tamil Nadu
78.8982363,12.3822934,Keezhkuppam Toll Plaza,Tamil Nadu
75.14041589,25.93815345,Kekri Toll Plaza,Rajasthan
75.14041589,25.93815345,Kekri Toll Plaza,Rajasthan
72.376381,26.1087841,Kelankot Toll Plaza,Rajasthan
78.54022,20.019307,Kelapur Toll Plaza,Maharashtra
78.54022,20.019307,Kelapur Toll Plaza,Maharashtra
78.5221,21.2817,Kelwad Check Post Toll Plaza,Maharashtra
78.8723439,21.4713575,Kelwad Toll Plaza,Maharashtra
78.8723439,21.4713575,Kelwad Toll Plaza,Maharashtra
75.0488677,25.2264768,Khachrol Toll Plaza,Rajasthan
75.0488677,25.2264768,Khachrol Toll Plaza,Rajasthan
81.3650697,24.5224338,Khadda Toll Plaza,Madhya Pradesh
81.3650697,24.5224338,Khadda Toll Plaza,Madhya Pradesh
74.9822118,19.5551641,Khadka Toll Plaza,Maharashtra
74.9822118,19.5551641,Khadka Toll Plaza,Maharashtra
87.9026226,26.3189199,Khaikhat Toll Plaza,Bihar
87.9026226,26.3189199,Khaikhat Toll Plaza,Bihar
80.75257643,27.50387508,Khairabad Toll Plaza,Uttar Pradesh
80.75257643,27.50387508,Khairabad Toll Plaza,Uttar Pradesh
73.2853639,18.8010822,Khalapur Toll Plaza,Maharashtra
73.2853639,18.8010822,Khalapur Toll Plaza,Maharashtra
75.4569637,22.17368719,Khalghat Toll Plaza,Madhya Pradesh
77.1528312,28.1576418,Khalilpur Toll Plaza,Haryana
77.1528312,28.1576418,Khalilpur Toll Plaza,Haryana
77.1528312,28.1576418,Khalilpur Toll Plaza,Haryana
77.1528312,28.1576418,Khalilpur Toll Plaza,Haryana
85.1929903,21.2498112,Khamara Toll Plaza,Odisha
78.3893887,21.693403,Khambara Toll Plaza,Madhya Pradesh
78.3893887,21.693403,Khambara Toll Plaza,Madhya Pradesh
73.6279059,23.9936411,Khandi Obri Toll Plaza,Rajasthan
73.6279059,23.9936411,Khandi Obri Toll Plaza,Rajasthan
72.91690181,19.51914384,Khaniwade Toll Plaza,Maharashtra
72.91690181,19.51914384,Khaniwade Toll Plaza,Maharashtra
80.0602037,25.5436277,Khanna Toll Plaza,Uttar Pradesh
80.0602037,25.5436277,Khanna Toll Plaza,Uttar Pradesh
80.0630536,25.5765946,Khanna Km 86 Toll Plaza,Uttar Pradesh
72.326372,26.578813,Khanori Toll Plaza,Rajasthan
72.326372,26.578813,Khanori Toll Plaza,Rajasthan
76.3150907,24.6570061,Khanpur Toll Plaza,Rajasthan
73.3900837,28.2333309,Khara Toll Plaza,Rajasthan
73.3337076,28.2304774,KHARA TOLL PLAZA,Rajasthan
79.8238829,20.6065573,Kharbi Toll Plaza,Maharashtra
87.01154,25.385796,Kharik Toll Plaza,Bihar
76.376,28.926778,Kharkhara Toll Plaza,Haryana
76.376,28.926778,Kharkhara Toll Plaza,Haryana
76.946385,28.858488,Kharkhoda Toll Plaza,Haryana
76.946385,28.858488,Kharkhoda Toll Plaza,Haryana
77.6316868,21.3741511,Kharpi Check Post Toll Plaza,Maharashtra
76.2534739,29.3939865,Khatkar Toll Plaza,Haryana
76.2534739,29.3939865,Khatkar Toll Plaza,Haryana
79.4339888,21.7032275,Khawasa Toll Plaza,Madhya Pradesh
79.4339888,21.7032275,Khawasa Toll Plaza,Madhya Pradesh
72.74086733,22.71617721,Kheda Toll Plaza,Gujarat
72.74086733,22.71617721,Kheda Toll Plaza,Gujarat
74.6849573,26.1031269,Khedi Toll Plaza,Rajasthan
73.8524647,18.3313818,Khed-Shivapur Toll Plaza,Maharashtra
73.8512103,18.3315641,Khedshivapur Toll Plaza,Maharashtra
72.3237362,27.283659,Kheerwa Toll Plaza,Rajasthan
73.1638511,26.1581389,Khejrali P W D Toll Plaza,Rajasthan
72.4627091,24.2413075,Khemana Toll Plaza,Gujarat
72.4627091,24.2413075,Khemana Toll Plaza,Gujarat
76.3479747,28.8265031,Kherari Toll Plaza,Haryana
76.3479747,28.8265031,Kherari Toll Plaza,Haryana
76.5343486,29.5518204,Kheri Sharaf Ali Toll Plaza,Haryana
76.5343486,29.5518204,Kheri Sharaf Ali Toll Plaza,Haryana
75.393667,24.0165842,Kherkheda Toll Plaza,Madhya Pradesh
75.393667,24.0165842,Kherkheda Toll Plaza,Madhya Pradesh
76.9811308,28.3959589,Kherki Daula Toll Plaza,Haryana
76.9811308,28.3959589,Kherki Daula Toll Plaza,Haryana
80.5992648,24.122453,Kherwasani Toll Plaza,Madhya Pradesh
80.5992648,24.122453,Kherwasani Toll Plaza,Madhya Pradesh
85.6971597,21.7056324,Khireitangiri Toll Plaza,Odisha
85.6971597,21.7056324,Khireitangiri Toll Plaza,Odisha
78.486586,23.0886331,Khiriya Toll Plaza,Madhya Pradesh
78.486586,23.0886331,Khiriya Toll Plaza,Madhya Pradesh
78.7649327,24.6414536,Khiriya Naka Toll Plaza,Madhya Pradesh
72.820181,26.787956,Khudiyala Toll Plaza,Rajasthan
74.7936904,29.8807575,Khuian Malkna Toll Plaza,Haryana
74.026137,30.0885478,Khuian Sarvar Toll Plaza,Punjab
79.2976212,21.4440458,Khumari Toll Plaza,Maharashtra
76.4254498,29.0983865,Kilazafargarh Toll Plaza,Haryana
74.298239,16.876605,Kini Toll Plaza,Maharashtra
77.1722937,28.1882936,Kiranj Toll Plaza,Haryana
77.1722937,28.1882936,Kiranj Toll Plaza,Haryana
77.1722937,28.1882936,Kiranj Toll Plaza,Haryana
78.286552,27.7918904,Kiratpur Toll Plaza,Uttar Pradesh
78.286552,27.7918904,Kiratpur Toll Plaza,Uttar Pradesh
74.939169,26.595329,Kishangarh Toll Plaza,Rajasthan
74.939169,26.595329,Kishangarh Toll Plaza,Rajasthan
75.7966206,25.135915,Kishorepura Toll Plaza,Rajasthan
76.1585586,28.6929599,Kitlana Toll Plaza,Haryana
76.70803064,28.10532693,KK Toll Plaza,Rajasthan
76.4228,28.6192,KK Toll Plaza,Haryana
72.1415156,21.6196125,Kobadi Toll Plaza,Gujarat
72.1415156,21.6196125,Kobadi Toll Plaza,Gujarat
78.8478045,9.887468,Kodikottai Toll Plaza,Tamil Nadu
78.8478045,9.887468,Kodikottai Toll Plaza,Tamil Nadu
74.3185823,16.5417017,Kognoli Toll Plaza,Karnataka
74.3185823,16.5417017,Kognoli Toll Plaza,Karnataka
78.194936,17.242673,Kokapet Toll Plaza,Telangana
81.5278362,25.5763926,Kokhraj Toll Plaza,Uttar Pradesh
81.5296482,25.5765394,Kokhraj (Sirohi) Toll Plaza,Uttar Pradesh
74.473085,19.84029,Kokmathan Toll Plaza,Maharashtra
74.473085,19.84029,Kokmathan Toll Plaza,Maharashtra
86.5983799,22.4463767,Kokpara Toll Plaza,Jharkhand
86.5983799,22.4463767,Kokpara Toll Plaza,Jharkhand
80.0713634,13.0708533,Kolappancheri Toll Plaza,Tamil Nadu
80.0713634,13.0708533,Kolappancheri Toll Plaza,Tamil Nadu
74.3359426,29.5199622,Kolha Toll Plaza,Rajasthan
76.5757981,8.921251,Kollam Bypass Toll Plaza,Kerala
76.5757981,8.921251,Kollam Bypass Toll Plaza,Kerala
77.927905,18.017805,Kollapalle Toll Plaza,Telangana
72.3121314,26.9043408,Kolu Toll Plaza,Rajasthan
79.2835625,17.7774163,Komalla Toll Plaza,Telangana
79.2835625,17.7774163,Komalla Toll Plaza,Telangana
79.4973501,18.0217374,Komatipalli Toll Plaza,Telangana
79.4999256,18.02174,KOMATIPALLI TOLL PLAZA,Telangana
77.0859981,26.5372248,Kondar Toll Plaza,Rajasthan
78.6758205,16.6120211,Konetipuram Toll Plaza,Telangana
78.6758205,16.6120211,Konetipuram Toll Plaza,Telangana
73.078176,19.038,Kopra Kharghar Toll Plaza,Maharashtra
73.078176,19.038,Kopra Kharghar Toll Plaza,Maharashtra
77.71604897,27.11511785,Korai Toll Plaza,Uttar Pradesh
77.71604897,27.11511785,Korai Toll Plaza,Uttar Pradesh
79.4748511,17.1596639,Koralaphad Toll Plaza,Telangana
79.4722003,17.1585939,Korlapahad Toll Plaza,Telangana
74.9163954,30.826647,Kot Karora Kalan Toll Plaza,Punjab
75.796857,25.132814,Kota Bypass Toll Plaza,Rajasthan
75.796857,25.132814,Kota Bypass Toll Plaza,Rajasthan
80.0036,17.1314,Kothagudem Toll Plaza,Telangana
80.0036,17.1314,Kothagudem Toll Plaza,Telangana
87.6472933,25.2379886,Kothiya Toll Plaza,Jharkhand
73.6279059,23.9936411,Kotp Toll Plaza,Rajasthan
81.7169501,17.027275,Kovvuru Plaz Toll Plaza,Andhra Pradesh
81.7189849,17.0269308,Kovvuru Toll Plaza,Andhra Pradesh
79.0968297,28.8296303,Koyla Toll Plaza,Uttar Pradesh
79.0968297,28.8296303,Koyla Toll Plaza,Uttar Pradesh
77.90926104,10.19443546,Kodairoad Toll Plaza,Tamil Nadu
77.90926104,10.19443546,Kodairoad Toll Plaza,Tamil Nadu
78.201282,12.544621,Krishnagiri Toll Plaza,Tamil Nadu
78.201282,12.544621,Krishnagiri Toll Plaza,Tamil Nadu
82.1107,17.215448,Krishnavaram Toll Plaza,Andhra Pradesh
78.6213152,22.3634294,Kuabadla Toll Plaza,Madhya Pradesh
78.6213152,22.3634294,Kuabadla Toll Plaza,Madhya Pradesh
69.5333625,21.6975745,Kuchadi Toll Plaza,Gujarat
73.95733,26.980362,Kuchera Toll Plaza,Rajasthan
73.95733,26.980362,Kuchera Toll Plaza,Rajasthan
72.269757,24.4581016,Kuchhvada Toll Plaza,Gujarat
72.269757,24.4581016,Kuchhvada Toll Plaza,Gujarat
73.4521118,26.5739149,Kudi Toll Plaza,Rajasthan
84.7674799,25.5800474,Kulhariya Toll Plaza,Bihar
77.3750936,13.1149338,Kulumapalya Toll Plaza,Karnataka
77.3750936,13.1149338,Kulumapalya Toll Plaza,Karnataka
77.3750936,13.1149338,Kulumapalya Toll Plaza,Karnataka
76.3134323,9.8952883,Kumbalam Toll Plaza,Kerala
81.5362761,21.2527685,Kumhari Toll Plaza,Chhattisgarh
81.5362761,21.2527685,Kumhari Toll Plaza,Chhattisgarh
77.0252216,28.9103301,Kundali Toll Plaza,Haryana
77.0252216,28.9103301,Kundali Toll Plaza,Haryana
82.3159597,25.6728153,Kunwarpur Toll Plaza,Uttar Pradesh
75.3362302,25.6950231,Kuradiya Toll Plaza,Rajasthan
76.5427711,30.9081357,Kurali Toll Plaza,Punjab
77.7848776,28.6280941,Kurana Toll Plaza,Uttar Pradesh
77.7848776,28.6280941,Kurana Toll Plaza,Uttar Pradesh
77.2633836,20.6956785,Kurankhed Toll Plaza,Maharashtra
82.126251,26.389542,Kurebhar Toll Plaza,Uttar Pradesh
75.9794457,14.3516296,Kurki Toll Plaza,Karnataka
75.9794457,14.3516296,Kurki Toll Plaza,Karnataka
78.0119877,15.887714,Kurnool District Toll Plaza,Telangana
78.0119877,15.887714,Kurnool District Toll Plaza,Telangana
78.0119877,15.887714,Kurnool District Toll Plaza,Telangana
78.0119877,15.887714,Kurnool District Toll Plaza,Telangana
79.5461961,11.2676655,Kurungudi Toll Plaza,Tamil Nadu
73.4397054,18.7602136,Kusgaon Nh48 Toll Plaza,Maharashtra
73.4397054,18.7602136,Kusgaon Nh48 Toll Plaza,Maharashtra
73.4397054,18.7602136,Kusgaon Nh48 Toll Plaza,Maharashtra
73.4397054,18.7602136,Kusgaon Nh48 Toll Plaza,Maharashtra
75.8205404,27.1531494,Kushalpura Toll Plaza,Rajasthan
76.2531451,25.9682658,Kusthala Toll Plaza,Rajasthan
75.3049241,14.2848013,Kutrahalli Toll Plaza,Karnataka
78.079924,12.0060995,L&T Krishnagiri Thopur P Toll Plaza,Tamil Nadu
76.9699254,29.4337007,L&T Panipat Toll Plaza,Haryana
73.114895,22.014877,L&T Vadodra Toll Plaza,Gujarat
73.114895,22.014877,L&T Vadodra Toll Plaza,Gujarat
78.0714667,30.2310507,Lachhiwala Toll vivek Pal raipur,Uttarakhand
78.1254076,30.2091826,Lachiwala Toll Plaza,Uttarakhand
75.790611,30.988606,Ladowal Toll Plaza,Punjab
75.790611,30.988606,Ladowal Toll Plaza,Punjab
75.5333336,32.1982061,Ladpalwan Toll Plaza,Punjab
75.5965406,32.3822169,Lakhanpur Toll Plaza,Jammu and Kashmir
75.5965406,32.3822169,Lakhanpur Toll Plaza,Jammu and Kashmir
73.8765429,28.0935861,Lakhasar Toll Plaza,Rajasthan
73.8765429,28.0935861,Lakhasar Toll Plaza,Rajasthan
75.31341,25.482404,Lal Ka Khera Toll Plaza,Rajasthan
75.31341,25.482404,Lal Ka Khera Toll Plaza,Rajasthan
82.492672,25.2669968,Lalanagar Toll Plaza,Uttar Pradesh
82.492672,25.2669968,Lalanagar Toll Plaza,Uttar Pradesh
74.7542777,20.8330746,Laling Toll Plaza,Maharashtra
74.7542777,20.8330746,Laling Toll Plaza,Maharashtra
74.8021501,34.0921739,Lamber Toll Plaza,Jammu and Kashmir
74.8021501,34.0921739,Lamber Toll Plaza,Jammu and Kashmir
74.593839,25.5871683,Lambiya Kalan Toll Plaza,Rajasthan
74.593839,25.5871683,Lambiya Kalan Toll Plaza,Rajasthan
73.0091886,27.1614351,Lamnannagar Toll Plaza,Rajasthan
75.64817688,29.29258703,Landhari Toll Plaza,Haryana
75.64817688,29.29258703,Landhari Toll Plaza,Haryana
75.4762419,28.7015178,Lasedi Toll Plaza,Rajasthan
75.4762419,28.7015178,Lasedi Toll Plaza,Rajasthan
71.4463345,27.0299896,Lathi Toll Plaza,Rajasthan
80.1067029,21.8596193,Lawada Toll Plaza,Madhya Pradesh
80.1067029,21.8596193,Lawada Toll Plaza,Madhya Pradesh
84.3894531,18.7337875,Laxmipuram Toll Plaza,Andhra Pradesh
79.5344793,28.4724919,Lebhera Toll Plaza,Uttar Pradesh
78.7477758,10.6232763,Lechchumanapatti Toll Plaza,Tamil Nadu
74.0102124,26.0708728,Leelamba Toll Plaza,Rajasthan
74.0102124,26.0708728,Leelamba Toll Plaza,Rajasthan
75.1022337,30.2337506,Lehra Begga Toll Plaza,Punjab
78.7707014,10.3000239,Lembalakudi Toll Plaza,Tamil Nadu
75.1940029,19.7792602,Limbe Toll Plaza,Maharashtra
75.1940029,19.7792602,Limbe Toll Plaza,Maharashtra
74.151063,23.0257574,Limdi Tax Toll Plaza,Gujarat
74.15265,23.034411,Limdi Toll Plaza,Gujarat
74.15265,23.034411,Limdi Toll Plaza,Gujarat
82.3028543,22.2893363,Limha Toll Plaza,Chhattisgarh
82.3028543,22.2893363,Limha Toll Plaza,Chhattisgarh
76.1378037,13.4438811,Linglapura Toll Plaza,Karnataka
84.3601402,22.9542351,Lodam Toll Plaza,Chhattisgarh
84.3601402,22.9542351,Lodam Toll Plaza,Chhattisgarh
78.916861,25.343778,Lohari Toll Plaza,Uttar Pradesh
78.916861,25.343778,Lohari Toll Plaza,Uttar Pradesh
92.393079,25.169119,Lomshinong Toll Plaza,Meghalaya
92.393079,25.169119,Lomshinong Toll Plaza,Meghalaya
76.518039,29.241281,Ludana Toll Plaza,Haryana
77.4166705,27.1786731,Ludhwai Toll Plaza,Rajasthan
77.4166705,27.1786731,Ludhwai Toll Plaza,Rajasthan
77.6266832,28.499023,Luharli Toll plaza,Uttar Pradesh
77.6266832,28.499023,Luharli Toll plaza,Uttar Pradesh
77.6262937,28.4995977,Luharli Toll Plaza,Uttar Pradesh
77.6262937,28.4995977,Luharli Toll Plaza,Uttar Pradesh
79.115999,22.553803,Madai Toll Plaza,Madhya Pradesh
79.115999,22.553803,Madai Toll Plaza,Madhya Pradesh
91.71610597,26.30909625,Madanpur Toll Plaza,Assam
91.71610597,26.30909625,Madanpur Toll Plaza,Assam
82.4833346,22.4550013,Madanpur Toll Plaza,Chhattisgarh
84.000399,18.3773156,Madapam Toll Plaza,Andhra Pradesh
84.000399,18.3773156,Madapam Toll Plaza,Andhra Pradesh
80.143389,23.44825,Madhav Sihora Silodi Corridor Toll Plaza,Madhya Pradesh
76.3989284,28.9387508,Madina Toll Plaza,Haryana
78.08705754,27.80401412,Madrak Toll Plaza,Uttar Pradesh
78.08705754,27.80401412,Madrak Toll Plaza,Uttar Pradesh
79.4535756,16.9794237,Madugulapally Toll Plaza,Telangana
74.3741,24.4935,Madugulapally Toll Plaza,Rajasthan
76.9458854,10.8965693,Madukkarai Toll Plaza,Tamil Nadu
76.9458854,10.8965693,Madukkarai Toll Plaza,Tamil Nadu
76.9458854,10.8965693,Madukkarai Toll Plaza,Tamil Nadu
80.0998102,12.6153657,Mahabalipuram Toll Plaza,Tamil Nadu
85.4476536,26.0386579,Mahant Maniyari Toll Plaza,Bihar
85.4476536,26.0386579,Mahant Maniyari Toll Plaza,Bihar
82.3843952,23.2950733,Maharajpur Toll Plaza,Chhattisgarh
82.3843952,23.2950733,Maharajpur Toll Plaza,Chhattisgarh
79.0166834,13.1952201,Mahasamudram Toll Plaza,Andhra Pradesh
79.0166834,13.1952201,Mahasamudram Toll Plaza,Andhra Pradesh
80.6908223,24.5772717,Mahauri Toll Plaza,Madhya Pradesh
80.6908223,24.5772717,Mahauri Toll Plaza,Madhya Pradesh
81.1302479,26.7201029,Mahurakalan Toll Plaza,Uttar Pradesh
77.7373593,27.3371037,Mahuvan Toll Plaza,Uttar Pradesh
77.7373593,27.3371037,Mahuvan Toll Plaza,Uttar Pradesh
76.6080103,27.4576683,Mahuwa Toll Plaza,Rajasthan
80.2959851,27.7391202,Maigalganj Toll Plaza,Uttar Pradesh
77.1611322,28.9175168,Main Village Jakhauli Toll Plaza,Haryana
77.1611322,28.9175168,Main Village Jakhauli Toll Plaza,Haryana
85.564841,26.1126777,Maithi Toll Plaza,Bihar
80.3390549,23.8838349,Majhagawan (Katni) Toll Plaza,Madhya Pradesh
80.3390549,23.8838349,Majhagawan (Katni) Toll Plaza,Madhya Pradesh
80.350801,23.869976,Majhgawan Toll Plaza,Madhya Pradesh
80.350801,23.869976,Majhgawan Toll Plaza,Madhya Pradesh
70.9419544,23.4899351,Makhel Toll Plaza,Gujarat
76.6098188,28.944213,Makrauli Kalan Toll Plaza,Haryana
76.6098188,28.944213,Makrauli Kalan Toll Plaza,Haryana
74.564962,28.2627227,Malasar Toll Plaza,Rajasthan
77.014024,18.830215,Malegaon Toll Plaza,Maharashtra
76.972215,20.283102,Malegaon Toll Plaza,Maharashtra
76.972215,20.283102,Malegaon Toll Plaza,Maharashtra
76.972215,20.283102,Malegaon Toll Plaza,Maharashtra
73.0931034,24.7132464,Malera Toll Plaza,Rajasthan
75.1646553,19.9415286,Maliwada Toll Plaza,Maharashtra
75.1646553,19.9415286,Maliwada Toll Plaza,Maharashtra
75.6141861,19.6031213,Maliwadi Tp Toll Plaza,Maharashtra
73.9634522,28.752127,Malkisar Toll Plaza,Rajasthan
78.3684011,17.5617984,Mallampet Toll Plaza,Telangana
75.406959,26.3054858,Malpura Toll Plaza,Rajasthan
75.406959,26.3054858,Malpura Toll Plaza,Rajasthan
78.511697,24.3228636,Malthon Toll Plaza Sagar,Madhya Pradesh
78.5262915,24.3221381,Malthone Toll Plaza,Madhya Pradesh
71.7848831,23.0713252,Malvan Toll Plaza,Gujarat
71.7848831,23.0713252,Malvan Toll Plaza,Gujarat
75.0359184,24.0474376,Malyakhedi Toll Plaza,Madhya Pradesh
79.8671801,17.1893734,Mamillagudem Gate Toll Plaza,Telangana
79.8671801,17.1893734,Mamillagudem Gate Toll Plaza,Telangana
84.9979913,25.48631,Mamrejpur Toll Plaza,Bihar
79.2407684,11.1414325,Managethi Toll Plaza,Tamil Nadu
79.2407684,11.1414325,Managethi Toll Plaza,Tamil Nadu
72.9835118,26.4280258,Manaklaw Tp-02 Toll Plaza,Rajasthan
74.80007,31.51599,Manan Toll Plaza,Punjab
75.1023819,23.7966194,Manankheda Toll Plaza,Madhya Pradesh
78.21839857,10.93181333,Manavasi Toll Plaza,Tamil Nadu
78.21839857,10.93181333,Manavasi Toll Plaza,Tamil Nadu
75.0260646,22.2106595,Manawarkukshi Toll Plaza,Madhya Pradesh
73.4795004,21.1345486,Mandal Toll Plaza,Gujarat
73.4795004,21.1345486,Mandal Toll Plaza,Gujarat
79.4789464,19.0121372,Mandamarri Toll Plaza,Telangana
79.4789464,19.0121372,Mandamarri Toll Plaza,Telangana
75.9348134,24.9664633,Mandana Toll Plaza,Rajasthan
75.9348134,24.9664633,Mandana Toll Plaza,Rajasthan
73.8147056,25.2037735,Mandawara Toll Plaza,Rajasthan
82.7310943,26.8109087,Mandawnagar Toll Plaza,Uttar Pradesh
82.730717,26.80972,Mandawnagar toll plaza,Uttar Pradesh
93.1385782,25.7365827,Manderdisa Toll Plaza,Assam
93.1385782,25.7365827,Manderdisa Toll Plaza,Assam
81.9047315,21.2029584,Mandir Hasaud Toll Plaza,Chhattisgarh
82.3093005,25.6709797,Mandirhasaud Toll Plaza,Uttar Pradesh
82.3093005,25.6709797,Mandirhasaud Toll Plaza,Uttar Pradesh
75.6954461,22.2804638,Mandleswar Toll Plaza,Madhya Pradesh
75.51263,17.265351,Mandrup Border Checkpost Toll Plaza,Maharashtra
73.0607839,21.7020337,Mandva Toll Plaza,Gujarat
73.0607839,21.7020337,Mandva Toll Plaza,Gujarat
75.11918,22.050986,Mandwara Toll Plaza,Madhya Pradesh
76.8904983,28.3263737,Maneshar-7A Toll Plaza,Haryana
76.8904983,28.3263737,Maneshar-7A Toll Plaza,Haryana
76.8953758,28.3109833,Maneshar-7B Toll Plaza,Haryana
76.8953758,28.3109833,Maneshar-7B Toll Plaza,Haryana
77.3178981,17.7455609,Mangalgi Toll Plaza,Karnataka
77.3178981,17.7455609,Mangalgi Toll Plaza,Karnataka
74.171998,24.6192526,Mangalwad Rd Toll Plaza,Rajasthan
85.9635421,20.5401579,Manguli Toll Plaza,Odisha
78.4717091,17.8010452,Manoharabad Toll Plaza,Telangana
78.4717091,17.8010452,Manoharabad Toll Plaza,Telangana
75.9535664,27.3056232,Manoharpura Toll Plaza,Rajasthan
75.9515266,27.3054686,Manoharpura Toll,Rajasthan
79.2542332,21.3828187,Mansar Toll Plaza,Maharashtra
76.5742425,15.4669393,Marali Toll Plaza,Karnataka
76.5742425,15.4669393,Marali Toll Plaza,Karnataka
87.4584039,25.7283645,Maranga Toll Plaza,Bihar
87.4584039,25.7283645,Maranga Toll Plaza,Bihar
75.342526,17.24133,Marawade Check Post Toll Plaza,Maharashtra
81.686546,20.895944,Maroud Toll Plaza,Chhattisgarh
83.069746,17.747949,Marripalem Toll Plaza,Andhra Pradesh
77.6312111,14.5020927,Marur Toll Plaza,Andhra Pradesh
77.6312111,14.5020927,Marur Toll Plaza,Andhra Pradesh
81.6664507,19.6231681,Mashora Toll Plaza,Chhattisgarh
81.6664507,19.6231681,Mashora Toll Plaza,Chhattisgarh
82.0654172,24.7605365,Masuriha Toll Plaza,Madhya Pradesh
79.3619184,21.1387822,Mathani Toll Plaza,Maharashtra
79.365105,21.139545,Mathni Toll Plaza,Maharashtra
80.2449255,13.176619,Mathur Toll Plaza,Tamil Nadu
80.2449255,13.176619,Mathur Toll Plaza,Tamil Nadu
77.7333274,27.6600399,Mathura Toll Plaza,Uttar Pradesh
77.7333274,27.6600399,Mathura Toll Plaza,Uttar Pradesh
77.43934,28.284826,Maujpur Toll Plaza,Haryana
77.43934,28.284826,Maujpur Toll Plaza,Haryana
80.369208,25.5445306,Mavai Km 54 Toll Plaza,Uttar Pradesh
77.2480109,28.8766545,Mavikala Toll Plaza,Uttar Pradesh
77.2480109,28.8766545,Mavikala Toll Plaza,Uttar Pradesh
78.9239943,24.7914801,Mawai Toll Plaza,Madhya Pradesh
75.8865945,29.1010926,Mayar Toll Plaza,Haryana
77.4693004,27.2486104,Mb(Gundwa) Toll Plaza,Rajasthan
79.4818223,16.0248494,Medapi Toll Plaza,Andhra Pradesh
79.4818223,16.0248494,Medapi Toll Plaza,Andhra Pradesh
78.292706,17.355345,Medchal Toll Plaza,Telangana
72.481349,26.166723,Meghawas Toll Plaza,Rajasthan
76.57148,20.186217,Mehkar Toll Plaza,Maharashtra
78.2400126,26.1971783,Mehra Toll Plaza,Madhya Pradesh
78.2400126,26.1971783,Mehra Toll Plaza,Madhya Pradesh
78.2400126,26.1971783,Mehra Toll Plaza,Madhya Pradesh
72.3874616,23.5278324,Mehsana Toll Plaza,Gujarat
72.3874616,23.5278324,Mehsana Toll Plaza,Gujarat
87.1246377,23.5378855,Mejia Toll Plaza,West Bengal
87.1246377,23.5378855,Mejia Toll Plaza,West Bengal
79.351847,15.667579,Mekalavaripalli Toll Plaza,Andhra Pradesh
75.602804,21.8967092,Mengaon Toll Plaza,Madhya Pradesh
76.5045237,24.4201613,Methoon Toll Plaza,Rajasthan
76.5045237,24.4201613,Methoon Toll Plaza,Rajasthan
75.5457999,22.6731635,Methwada Toll Plaza,Madhya Pradesh
75.5457999,22.6731635,Methwada Toll Plaza,Madhya Pradesh
75.5457999,22.6731635,Methwada Toll Plaza,Madhya Pradesh
78.330731,11.661687,Mettupatti Toll Plaza,Tamil Nadu
78.3272022,11.6621566,Mettupatti Toll Plaza,Tamil Nadu
78.0156067,26.0973888,MGWSH Toll Plaza,Madhya Pradesh
74.4928517,18.9331145,Mhasane Phata Toll Plaza,Maharashtra
74.4928517,18.9331145,Mhasane Phata Toll Plaza,Maharashtra
92.8360617,26.1324109,Mikirati Hawgaon Toll Plaza,Assam
92.8360617,26.1324109,Mikirati Hawgaon Toll Plaza,Assam
77.9571605,21.8636943,Milanpur Toll Plaza,Madhya Pradesh
77.1939855,30.2114616,Milkmajra Toll Plaza,Haryana
79.3069787,16.0378153,Millampali Toll Plaza,Andhra Pradesh
83.5468678,25.6840969,Mirzapur / Kyampur Toll Plaza,Uttar Pradesh
83.5468678,25.6840969,Mirzapur / Kyampur Toll Plaza,Uttar Pradesh
81.9933198,26.6634977,Mithegaon Toll Plaza,Uttar Pradesh
74.4909985,19.9800944,Mmkipl Toll Plaza,Maharashtra
78.7962786,28.5808592,Mohammad Ibrahimpur Toll Plaza,Uttar Pradesh
78.7962786,28.5808592,Mohammad Ibrahimpur Toll Plaza,Uttar Pradesh
83.5615181,25.1882628,Mohania Toll Plaza,Bihar
83.5615181,25.1882628,Mohania Toll Plaza,Bihar
76.559183,29.650296,Mohna Toll Plaza,Haryana
76.559183,29.650296,Mohna Toll Plaza,Haryana
80.0877045,23.4335828,Mohtara Toll Plaza,Madhya Pradesh
80.0877045,23.4335828,Mohtara Toll Plaza,Madhya Pradesh
80.0877045,23.4335828,Mohtara Toll Plaza,Madhya Pradesh
76.9992659,15.1948522,Moka Toll Plaza,Karnataka
69.8025567,22.9349438,Mokha Toll Plaza,Gujarat
69.8025567,22.9349438,Mokha Toll Plaza,Gujarat
72.2773223,25.7178293,Moothli Toll Plaza,Rajasthan
80.914134,16.054778,Mopidevi Toll Plaza,Andhra Pradesh
71.952354,26.891524,Morani Toll Plaza,Rajasthan
71.952354,26.891524,Morani Toll Plaza,Rajasthan
76.3841779,28.64087723,Morwala Toll Plaza,Haryana
72.7251362,24.5807456,Mount Abu Green Tax Toll Plaza,Rajasthan
76.6405593,31.2116442,Moura Toll Plaza,Punjab
77.3200934,23.3110682,Mubarakpur Toll Plaza,Madhya Pradesh
77.3200934,23.3110682,Mubarakpur Toll Plaza,Madhya Pradesh
77.7290671,25.6814588,Mud Kheda Toll Plaza,Madhya Pradesh
81.159205,21.19004,Mudhipar Toll Plaza,Chhattisgarh
81.159205,21.19004,Mudhipar Toll Plaza,Chhattisgarh
78.5186628,13.6991563,Mudiveedu Toll Plaza,Andhra Pradesh
81.2289063,22.1556176,Mudiyapara Toll Plaza,Chhattisgarh
81.2289063,22.1556176,Mudiyapara Toll Plaza,Chhattisgarh
74.9001389,23.9748535,Mudkheda Toll Plaza,Rajasthan
74.4928807,25.2750423,Mujras Toll Plaza,Rajasthan
78.2916194,13.1488835,Mulbagal Toll Plaza,Karnataka
72.965821,19.1530141,Mulund(Eeh) Toll Plaza,Maharashtra
72.9586,19.1855,Mulund(Lbs) Toll Plaza,Maharashtra
75.8898573,15.1381357,Mundaragi Toll Plaza,Karnataka
77.136416,25.2098373,Mundiyar Toll Plaza,Rajasthan
81.9478508,25.2987784,Mungari Toll Plaza,Uttar Pradesh
81.9478508,25.2987784,Mungari Toll Plaza,Uttar Pradesh
79.3360888,24.6440789,Mungwari Toll Plaza,Madhya Pradesh
79.3360888,24.6440789,Mungwari Toll Plaza,Madhya Pradesh
81.2207866,16.3199258,Munjuluru Toll Plaza,Andhra Pradesh
81.2207866,16.3199258,Munjuluru Toll Plaza,Andhra Pradesh
78.285317,16.7455098,Munnanur Toll Plaza,Telangana
78.285317,16.7455098,Munnanur Toll Plaza,Telangana
85.8755385,25.5899312,Murlitol Toll Plaza,Bihar
85.1218942,23.4459589,Murma Toll Plaza,Jharkhand
79.9870079,14.8517573,Musunur Toll Plaza,Andhra Pradesh
79.9870079,14.8517573,Musunur Toll Plaza,Andhra Pradesh
79.9141619,17.9740602,Muthojipet Toll Plaza,Telangana
79.9141619,17.9740602,Muthojipet Toll Plaza,Telangana
83.8085037,26.7339942,Muzaina Hetim Toll Plaza,Uttar Pradesh
77.4700344,12.9034965,Mysore Road (P5) Toll Plaza,Karnataka
77.4700344,12.9034965,Mysore Road (P5) Toll Plaza,Karnataka
72.896397,22.696475,Nadiad Toll Plaza,Gujarat
75.9236036,16.2904811,Nagarhalla Toll Plaza,Karnataka
75.9236036,16.2904811,Nagarhalla Toll Plaza,Karnataka
79.33326,16.56754,Nagarjunasagar Emc Check Post Toll Plaza,Andhra Pradesh
71.322243,20.9161491,Nageshri Toll Plaza,Gujarat
79.0122454,20.2289846,Nagpur Bypass Check Plaz Toll Plaza,Maharashtra
85.3864363,24.0434829,Nagwan Toll Plaza,Jharkhand
85.3864363,24.0434829,Nagwan Toll Plaza,Jharkhand
74.6391,28.4747,Nainasar Toll Plaza,Rajasthan
83.252378,27.2123299,Nainsar Toll Plaza,Uttar Pradesh
83.252378,27.2123299,Nainsar Toll Plaza,Uttar Pradesh
75.3575,15.369722,Nalavadi Toll Plaza,Karnataka
75.3575,15.369722,Nalavadi Toll Plaza,Karnataka
80.168862,13.217069,Nallur Toll Plaza,Tamil Nadu
80.168862,13.217069,Nallur Toll Plaza,Tamil Nadu
77.765216,13.2066171,Nalluru Devanahalli Toll Plaza,Karnataka
88.2365151,21.7501428,Namkhana Toll Plaza,West Bengal
88.2365151,21.7501428,Namkhana Toll Plaza,West Bengal
78.211582,17.242648,Nanakramguda Toll Plaza,Telangana
75.855225,17.472901,Nandani Toll Plaza,Maharashtra
75.855225,17.472901,Nandani Toll Plaza,Maharashtra
77.7891989,20.9518657,Nandgaon Toll Plaza,Maharashtra
77.7834701,20.9509834,Nandgaon Peth Toll Plaza,Maharashtra
79.0293568,20.2002253,Nanduri Toll Plaza,Maharashtra
79.0293568,20.2002253,Nanduri Toll Plaza,Maharashtra
78.5453994,13.1945927,Nangli Toll Plaza,Karnataka
73.8765429,28.0935861,Nangli Toll Plaza,Rajasthan
77.663289,8.527035,Nanguneri Toll Plaza,Tamil Nadu
77.663289,8.527035,Nanguneri Toll Plaza,Tamil Nadu
78.0703413,15.7407596,Nannur Toll Plaza,Andhra Pradesh
78.0703413,15.7407596,Nannur Toll Plaza,Andhra Pradesh
74.5126847,22.2703047,Nanpur Toll Plaza,Madhya Pradesh
79.2997719,16.1643569,Narajamalatanda Emc Check Post Toll Plaza,Andhra Pradesh
74.2331102,24.6135861,Narayanpura Toll Plaza,Rajasthan
74.2331102,24.6135861,Narayanpura Toll Plaza,Rajasthan
74.9698433,15.4887439,Narendra Toll Plaza,Karnataka
72.5697459,25.4857764,Narsana Toll Plaza,Rajasthan
74.6664414,24.5523485,Narsingharh Toll Plaza,Rajasthan
78.3525025,17.3884129,Narsingi Toll Plaza,Telangana
76.0901097,29.5785751,Narwana Toll Plaza,Haryana
73.9014036,19.9124998,Nashik Sinner Ways Limited Toll Plaza,Maharashtra
73.9014036,19.9124998,Nashik Sinner Ways Limited Toll Plaza,Maharashtra
75.6839116,21.0163984,Nashirabad Toll Plaza,Maharashtra
75.6839116,21.0163984,Nashirabad Toll Plaza,Maharashtra
75.2935808,33.1297321,Nashri Toll Plaza,Jammu and Kashmir
75.2935808,33.1297321,Nashri Toll Plaza,Jammu and Kashmir
75.2935808,33.1297321,Nashri Toll Plaza,Jammu and Kashmir
75.2935808,33.1297321,Nashri Toll Plaza,Jammu and Kashmir
78.78073904,11.59271508,Nathakkarai Toll Plaza,Tamil Nadu
78.78073904,11.59271508,Nathakkarai Toll Plaza,Tamil Nadu
83.5212069,18.057944,Nathavalasa Toll Plaza,Andhra Pradesh
83.5212069,18.057944,Nathavalasa Toll Plaza,Andhra Pradesh
73.7409991,21.1622545,Navapur Border Checkpost Toll Plaza,Maharashtra
86.4303682,23.7975127,Navasari Toll Plaza,Jharkhand
81.745596,25.5651316,Nawabganj Toll Plaza,Uttar Pradesh
80.6965187,26.6228889,Nawabganj Toll Plaza,Uttar Pradesh
79.4368742,28.4535898,Nawabganj Toll Plaza,Uttar Pradesh
79.4368742,28.4535898,Nawabganj Toll Plaza,Uttar Pradesh
71.7333499,25.2483447,Naya Nagar Toll Plaza,Rajasthan
74.7614806,24.57221488,Nayagaon Toll Plaza,Madhya Pradesh
74.7614806,24.57221488,Nayagaon Toll Plaza,Madhya Pradesh
91.9383349,26.1209904,Nazirakhat Toll Plaza,Assam
91.9383349,26.1209904,Nazirakhat Toll Plaza,Assam
79.0688644,21.0283581,NBP Toll Plaza,Maharashtra
77.0887553,11.0612568,Neelambur Toll Plaza,Tamil Nadu
77.0887553,11.0612568,Neelambur Toll Plaza,Tamil Nadu
75.8043314,24.5203061,Neemthur Tool 1 Toll Plaza,Madhya Pradesh
73.76089849,24.79984598,Negadiya Toll Plaza,Rajasthan
73.76089849,24.79984598,Negadiya Toll Plaza,Rajasthan
73.76089849,24.79984598,Negadiya Toll Plaza,Rajasthan
76.0641827,27.2424579,Nekawala Toll Plaza,Rajasthan
76.0641827,27.2424579,Nekawala Toll Plaza,Rajasthan
77.394433,13.0925202,Nelamangala Toll Plaza,Karnataka
79.9161656,14.3122178,Nellore (NH- 16) Toll Plaza,Andhra Pradesh
79.918373,14.318408,Nellore Toll Plaza,Andhra Pradesh
73.15319503,26.57880302,Netra Toll Plaza,Rajasthan
73.15319503,26.57880302,Netra Toll Plaza,Rajasthan
80.1203409,26.7080425,Newada Toll Plaza,Uttar Pradesh
78.0647418,24.1542902,Newli Toll Plaza,Madhya Pradesh
70.5456265,21.840815,NHAI Pithadiya Toll Plaza,Gujarat
77.471287,12.9892754,NICE Magadi Road Tumkur Road Entrance Toll Plaza,Karnataka
77.471287,12.9892754,NICE Magadi Road Tumkur Road Entrance Toll Plaza,Karnataka
77.5295908,12.9368211,NICE Gate Hosakerehalli Toll Plaza,Karnataka
77.5295908,12.9368211,NICE Gate Hosakerehalli Toll Plaza,Karnataka
77.5248866,12.8572435,NICE Kanakpura Road Toll Plaza,Karnataka
77.5248866,12.8572435,NICE Kanakpura Road Toll Plaza,Karnataka
77.5248866,12.8572435,NICE Kanakpura Road Toll Plaza,Karnataka
75.8455421,19.8843722,Nidhhona Toll Plaza,Maharashtra
75.8455421,19.8843722,Nidhhona Toll Plaza,Maharashtra
76.0880527,12.6656974,Nilavagilu Toll Plaza,Karnataka
74.6484461,24.6104397,Nimbaheda Toll Plaza,Rajasthan
74.1751417,24.817213,Nimbahera Toll Plaza,Rajasthan
73.0886339,26.0186218,Nimbali Toll Plaza,Rajasthan
73.0886339,26.0186218,Nimbali Toll Plaza,Rajasthan
71.2805304,26.1512125,Nimbasar Toll Plaza,Rajasthan
71.2805304,26.1512125,Nimbasar Toll Plaza,Rajasthan
71.6301493,25.865879,Nimbayani Toll Plaza,Rajasthan
71.6301493,25.865879,Nimbayani Toll Plaza,Rajasthan
74.3203357,27.5145746,Nimbi Jodha Toll Plaza,Rajasthan
75.8156813,23.0815536,Ninora Toll Plaza,Madhya Pradesh
75.8156813,23.0815536,Ninora Toll Plaza,Madhya Pradesh
75.8274884,23.3007251,Nipaniya Toll Plaza,Madhya Pradesh
78.9006107,28.814384,Niyamatpur Ekrotiya Toll Plaza,Uttar Pradesh
78.9011191,28.8148755,Niyamatpur Ekrotiya Plaz Toll Plaza,Uttar Pradesh
72.67548768,27.66907351,Nokhra Toll Plaza,Rajasthan
72.67548768,27.66907351,Nokhra Toll Plaza,Rajasthan
73.5680753,28.0739697,Norangdesar Toll Plaza,Rajasthan
77.0749646,28.1792338,Nuh Toll Plaza,Haryana
83.2959055,20.2820761,Nunmath Toll Plaza,Odisha
81.437637,26.0360253,Nuruddinpur Toll Plaza,Uttar Pradesh
75.0714754,23.51207497,Nyapura Toll Plaza,Madhya Pradesh
77.093901,13.261002,Obalapura Toll Plaza,Karnataka
74.6291557,24.8244368,Ochadi Toll Plaza,Rajasthan
81.0754769,24.4037007,Odaki Pipkhar toll plaza,Madhya Pradesh
81.2986,24.593492,Odaki Pipkhar Toll Plaza,Madhya Pradesh
69.134107,22.0794154,Okhamadi Toll Plaza,Gujarat
69.134107,22.0794154,Okhamadi Toll Plaza,Gujarat
78.073818,11.7205098,Omalur Toll Plaza,Tamil Nadu
78.073818,11.7205098,Omalur Toll Plaza,Tamil Nadu
76.462114,17.495067,Omerga Border Checkpost Toll Plaza,Karnataka
79.3622638,25.9264418,Orai Km 174 Toll Plaza,Uttar Pradesh
76.646841,29.904809,Pabanawa Toll Plaza,Haryana
76.646841,29.904809,Pabanawa Toll Plaza,Haryana
82.9256801,23.1947951,Pachira Toll Plaza,Chhattisgarh
82.9256801,23.1947951,Pachira Toll Plaza,Chhattisgarh
79.376709,25.134303,Pachwara Toll Plaza,Madhya Pradesh
79.3752102,25.1352273,Pachwara Toll plaza NH39,Madhya Pradesh
75.7489823,19.1387887,Padalshingi Tp Toll Plaza,Maharashtra
74.5544512,27.9163043,Padiyara Toll Plaza,Rajasthan
86.9253147,21.5632851,Padmanavapur Toll Plaza,Odisha
86.9253147,21.5632851,Padmanavapur Toll Plaza,Odisha
86.9253147,21.5632851,Padmanavapur Toll Plaza,Odisha
77.1863399,24.5067467,Pagara Toll Plaza,Madhya Pradesh
77.4226046,24.6507446,Pagara-Guna Cantt Toll Plaza,Madhya Pradesh
91.860453,25.9926799,Pahammawlein Toll Plaza,Meghalaya
91.860453,25.9926799,Pahammawlein Toll Plaza,Meghalaya
76.1014463,29.8880996,Paind Toll Plaza,Punjab
76.1014463,29.8880996,Paind Toll Plaza,Punjab
80.0530728,13.1401952,Palavedu Toll Plaza,Tamil Nadu
80.0530728,13.1401952,Palavedu Toll Plaza,Tamil Nadu
79.0306466,10.6125656,Palaya Gandharvakottai Toll Plaza,Tamil Nadu
81.4008738,24.7707638,Palhan Toll Plaza,Madhya Pradesh
73.234089,25.8232645,Pali Toll Plaza,Rajasthan
76.2601604,10.4428845,Paliyekkara Toll Plaza,Kerala
76.260264,10.4437098,NHAI GIPL Thrissur Paliyekkara Toll Plaza,Kerala
75.9650826,23.0285516,Palkhanda Toll Plaza,Madhya Pradesh
75.9585299,25.88409,Pallai Toll Plaza,Rajasthan
75.9585299,25.88409,Pallai Toll Plaza,Rajasthan
78.9522243,12.9055065,Pallikonda Toll Plaza,Tamil Nadu
78.9522243,12.9055065,Pallikonda Toll Plaza,Tamil Nadu
74.2248086,28.9521594,Pallu Toll Plaza,Rajasthan
88.0264148,23.1787112,Palsit Toll Plaza,West Bengal
74.9745605,21.813574,Palsud Toll Plaza,Madhya Pradesh
74.9745605,21.813574,Palsud Toll Plaza,Madhya Pradesh
77.30527,28.102706,Palwal Toll Plaza,Haryana
76.7961251,10.8123713,Pampampallam Toll Plaza,Kerala
73.230391,27.5543597,Panchu Toll Plaza,Rajasthan
83.2080365,17.7130348,Panchvati Colony Toll Plaza,Andhra Pradesh
79.0704251,15.468,Pandhilla Palli Palza Toll Plaza,Andhra Pradesh
79.0723455,15.4657045,Pandillapalli Toll Plaza,Andhra Pradesh
76.6529,25.56625,Pandola Toll Plaza,Madhya Pradesh
80.8088244,22.39087,Pandutala Toll Plaza,Madhya Pradesh
80.8088244,22.39087,Pandutala Toll Plaza,Madhya Pradesh
78.0160678,26.0981824,Panihar Toll Plaza,Madhya Pradesh
88.5228934,26.57403833,Panikauri Toll Plaza,West Bengal
88.5228934,26.57403833,Panikauri Toll Plaza,West Bengal
76.9665533,29.4333383,Panipat Toll Plaza,Haryana
76.4579637,10.5905853,Paniyankara Toll Plaza,Kerala
76.4579637,10.5905853,Paniyankara Toll Plaza,Kerala
80.15294,24.65939,Panna Amanganj Toll Plaza,Madhya Pradesh
80.15294,24.65939,Panna Amanganj Toll Plaza,Madhya Pradesh
78.9605157,17.2329048,Pantangi Toll Plaza,Telangana
78.9605157,17.2329048,Pantangi Toll Plaza,Telangana
71.7516486,24.4473687,Panthawada Toll Plaza,Gujarat
73.1592709,18.965612,Panvel Bypass Naka Toll Plaza,Maharashtra
75.6873056,15.3587846,Papanashi Toll Plaza,Karnataka
76.7432731,27.7146488,Papri Toll Plaza,Rajasthan
74.3502933,25.7984895,Para Toll Plaza,Rajasthan
78.7298484,26.6731785,Para Toll Plaza,Madhya Pradesh
74.3516647,25.7987825,Para Toll Plaza,Rajasthan
82.3240988,22.0113244,Paraghat Toll Plaza,Chhattisgarh
82.3240988,22.0113244,Paraghat Toll Plaza,Chhattisgarh
79.98183,12.724182,Paranur Toll Plaza,Tamil Nadu
75.6978366,18.6288342,Pargaon Tp Toll Plaza,Maharashtra
85.022817,26.451643,Parsoni Khem Toll Plaza,Bihar
85.022817,26.451643,Parsoni Khem Toll Plaza,Bihar
73.375813,27.6941351,Parwa Toll Plaza,Rajasthan
84.7028361,24.5995517,Paschim Madati Toll Plaza,Bihar
84.7028361,24.5995517,Paschim Madati Toll Plaza,Bihar
84.7028361,24.5995517,Paschim Madati Toll Plaza,Bihar
88.2755272,26.5689308,Paschim Madati Toll Plaza,West Bengal
91.33,25.5,Pasyih Toll Plaza,Meghalaya
86.0638701,22.9301532,Pata Toll Plaza,Jharkhand
86.0638701,22.9301532,Pata Toll Plaza,Jharkhand
75.8971895,25.2858275,Patan Gudla Toll Plaza,Rajasthan
78.141037,17.3210332,Patancheru Toll Plaza,Telangana
79.0090327,21.3437491,Patanswangi Toll Plaza,Maharashtra
79.0090327,21.3437491,Patanswangi Toll Plaza,Maharashtra
76.6903747,23.1319273,Patariya Goyal Toll Plaza,Madhya Pradesh
76.6903747,23.1319273,Patariya Goyal Toll Plaza,Madhya Pradesh
74.4661511,18.4244569,Patas Toll Plaza,Maharashtra
74.4661511,18.4244569,Patas Toll Plaza,Maharashtra
72.4116031,25.9739187,Patau Toll Plaza,Rajasthan
90.2182195,26.567662,Patgaon Toll Plaza,Assam
90.2182195,26.567662,Patgaon Toll Plaza,Assam
82.0592287,23.2493196,Pathoroundi Toll Plaza,Madhya Pradesh
82.0592287,23.2493196,Pathoroundi Toll Plaza,Madhya Pradesh
77.1989389,29.5304909,Patnipratapur Toll Plaza,Uttar Pradesh
76.86769,28.391538,Patodi Toll Plaza,Haryana
76.86769,28.391538,Patodi Toll Plaza,Haryana
85.1508102,23.3214655,Patrachauli Toll Plaza,Jharkhand
73.0956218,29.0585782,Patroda Toll Plaza,Rajasthan
73.0956218,29.0585782,Patroda Toll Plaza,Rajasthan
76.7061871,17.3970162,Pattana Toll Plaza,Karnataka
79.8351089,13.150889,Pattarai Toll Plaza,Tamil Nadu
78.6559011,17.3198175,Pedda Amberpet Toll Plaza,Telangana
78.235572,17.121417,Peddagolconda Toll Plaza,Telangana
75.524512,17.779097,Penur Toll Plaza,Maharashtra
76.7850731,29.6236369,Peont Toll Plaza,Haryana
76.7850731,29.6236369,Peont Toll Plaza,Haryana
78.9178817,26.6831844,Phoop (Barahi) Km 105.300 Toll Plaza,Madhya Pradesh
76.1926109,17.7985214,Phulwadi Toll Plaza,Maharashtra
76.1926109,17.7985214,Phulwadi Toll Plaza,Maharashtra
84.7499195,26.7437226,Phulwaria Toll Plaza,Bihar
82.247095,26.3486189,Pidhi Toll Plaza,Uttar Pradesh
82.247095,26.3486189,Pidhi Toll Plaza,Uttar Pradesh
78.34233,19.50453,Pimpalkutti Border Checkpost Toll Plaza,Telangana
74.7590309,20.3016626,Pimparkhed User Toll Plaza,Maharashtra
74.2757904,19.8111079,Pimparwadi Toll Plaza,Maharashtra
74.2757904,19.8111079,Pimparwadi Toll Plaza,Maharashtra
73.5664042,19.675632,Pimpri Sadruddin Toll Plaza,Maharashtra
76.7664803,27.252984,Pinan Toll Plaza,Rajasthan
85.8391022,20.1371621,Pipili Toll Plaza,Odisha
85.8391022,20.1371621,Pipili Toll Plaza,Odisha
74.3713,26.1584,Piplai Toll Plaza,Rajasthan
74.3713,26.1584,Piplai Toll Plaza,Rajasthan
75.013273,24.168848,Piplyamandi Toll Plaza,Madhya Pradesh
80.7970596,24.3523153,Patharahata Toll Plaza,Madhya Pradesh
79.8351089,13.150889,Pattarai Toll Plaza,Tamil Nadu
81.5920624,26.2451044,Phulwari toll plaza,Uttar Pradesh
76.7664803,27.252984,Pinan Toll Plaza,Rajasthan
85.1830284,26.0557907,Pokhraira Toll Plaza,Bihar
80.8616541,16.5720296,Pottipadu Toll Plaza,Andhra Pradesh
85.502923,23.5426613,Pundag Toll Plaza,Jharkhand
75.9983801,26.5004499,Rabawata Toll Plaza,Rajasthan
73.3907483,29.4864836,Raisinghnagar Toll Plaza,Rajasthan
72.8246574,19.0434614,Rajiv Gandhi Sea Link Toll Plaza,Maharashtra
77.614165,25.278913,Ramnagar Toll Plaza,Madhya Pradesh
89.2311117,26.6848373,Rangalibazna Toll Plaza,West Bengal
80.0416395,21.8260047,Rasampalayam Toll Plaza,Madhya Pradesh
75.013273,24.168848,Piplyamandi Toll Plaza,Madhya Pradesh
78.5657746,19.7809141,Pippalwada Toll Plaza,Telangana
70.7813576,22.0838133,Pithadiya Toll Plaza,Gujarat
72.9568987,22.9123542,Pithai Toll Plaza,Gujarat
76.982178,10.914016,Pollachi Cochin Toll Plaza,Tamil Nadu
76.982178,10.914016,Pollachi Cochin Toll Plaza,Tamil Nadu
76.982178,10.914016,Pollachi Cochin Toll Plaza,Tamil Nadu
79.7888053,11.9828047,Pondicherry Tindivanam P Toll Plaza,Tamil Nadu
78.1101833,9.9297594,Ponnalagaram Toll Plaza,Tamil Nadu
78.1101833,9.9297594,Ponnalagaram Toll Plaza,Tamil Nadu
78.2569443,10.5364447,Ponnambalapatti Toll Plaza,Tamil Nadu
76.2586778,10.0105633,Poonarimangalam Toll Plaza,Kerala
76.2586778,10.0105633,Poonarimangalam Toll Plaza,Kerala
82.9734673,25.1773573,Pratappur Toll Plaza,Uttar Pradesh
82.9734673,25.1773573,Pratappur Toll Plaza,Uttar Pradesh
84.1153578,21.4496323,Pudapada Nildungri Toll Plaza,Odisha
84.1153578,21.4496323,Pudapada Nildungri Toll Plaza,Odisha
78.1788392,10.1098051,Pudur Toll Plaza,Tamil Nadu
78.1169975,8.8627337,Pudurpandiyapuram Toll Plaza,Tamil Nadu
78.0170106,15.8877207,Pullur Toll Plaza,Telangana
78.0170106,15.8877207,Pullur Toll Plaza,Telangana
85.502923,23.5426613,Pundag Toll Plaza,Jharkhand
86.0443263,23.6681959,Pupunki Toll Plaza,Jharkhand
78.4467625,29.4074182,Puraini Toll Plaza,Uttar Pradesh
78.4467625,29.4074182,Puraini Toll Plaza,Uttar Pradesh
